{
"type": "FeatureCollection",
"name": "us_public_schools",
"crs": { "type": "name", "properties": { "name": "urn:ogc:def:crs:OGC:1.3:CRS84" } },
"features": [
{ "type": "Feature", "properties": { "latitude": 34.783368, "longitude": -86.568502, "name": "Alabama A & M University", "city": "Normal", "us_state": "AL", "url": "www.aamu.edu\/", "population": "4616", "act_25": "16", "act_mid": "18", "act_75": "19", "cost": "22667" }, "geometry": { "type": "Point", "coordinates": [ -86.5685, 34.78337 ] } },
{ "type": "Feature", "properties": { "latitude": 33.505697, "longitude": -86.799345, "name": "University of Alabama at Birmingham", "city": "Birmingham", "us_state": "AL", "url": "www.uab.edu", "population": "12047", "act_25": "21", "act_mid": "25", "act_75": "28", "cost": "22684" }, "geometry": { "type": "Point", "coordinates": [ -86.79935, 33.5057 ] } },
{ "type": "Feature", "properties": { "latitude": 34.724557, "longitude": -86.640449, "name": "University of Alabama in Huntsville", "city": "Huntsville", "us_state": "AL", "url": "www.uah.edu", "population": "6346", "act_25": "25", "act_mid": "28", "act_75": "31", "cost": "22059" }, "geometry": { "type": "Point", "coordinates": [ -86.64045, 34.72456 ] } },
{ "type": "Feature", "properties": { "latitude": 32.364317, "longitude": -86.295677, "name": "Alabama State University", "city": "Montgomery", "us_state": "AL", "url": "www.alasu.edu", "population": "4704", "act_25": "15", "act_mid": "17", "act_75": "19", "cost": "19242" }, "geometry": { "type": "Point", "coordinates": [ -86.29568, 32.36432 ] } },
{ "type": "Feature", "properties": { "latitude": 33.211875, "longitude": -87.545978, "name": "The University of Alabama", "city": "Tuscaloosa", "us_state": "AL", "url": "www.ua.edu\/", "population": "31663", "act_25": "23", "act_mid": "27", "act_75": "31", "cost": "28422" }, "geometry": { "type": "Point", "coordinates": [ -87.54598, 33.21187 ] } },
{ "type": "Feature", "properties": { "latitude": 32.36736, "longitude": -86.177544, "name": "Auburn University at Montgomery", "city": "Montgomery", "us_state": "AL", "url": "www.aum.edu", "population": "4171", "act_25": "19", "act_mid": "22", "act_75": "24", "cost": "19255" }, "geometry": { "type": "Point", "coordinates": [ -86.17754, 32.36736 ] } },
{ "type": "Feature", "properties": { "latitude": 32.599378, "longitude": -85.488258, "name": "Auburn University", "city": "Auburn", "us_state": "AL", "url": "www.auburn.edu", "population": "22095", "act_25": "24", "act_mid": "27", "act_75": "30", "cost": "29794" }, "geometry": { "type": "Point", "coordinates": [ -85.48826, 32.59938 ] } },
{ "type": "Feature", "properties": { "latitude": 33.822938, "longitude": -85.765321, "name": "Jacksonville State University", "city": "Jacksonville", "us_state": "AL", "url": "www.jsu.edu\/", "population": "6714", "act_25": "20", "act_mid": "23", "act_75": "26", "cost": "20750" }, "geometry": { "type": "Point", "coordinates": [ -85.76532, 33.82294 ] } },
{ "type": "Feature", "properties": { "latitude": 32.588132, "longitude": -88.186329, "name": "University of West Alabama", "city": "Livingston", "us_state": "AL", "url": "www.uwa.edu", "population": "1974", "act_25": "18", "act_mid": "21", "act_75": "23", "cost": "18533" }, "geometry": { "type": "Point", "coordinates": [ -88.18633, 32.58813 ] } },
{ "type": "Feature", "properties": { "latitude": 32.623734, "longitude": -87.322041, "name": "Marion Military Institute", "city": "Marion", "us_state": "AL", "url": "www.marionmilitary.edu", "population": "422", "act_25": "19", "act_mid": "23", "act_75": "26", "cost": "17228" }, "geometry": { "type": "Point", "coordinates": [ -87.32204, 32.62373 ] } },
{ "type": "Feature", "properties": { "latitude": 33.10625, "longitude": -86.865099, "name": "University of Montevallo", "city": "Montevallo", "us_state": "AL", "url": "www.montevallo.edu", "population": "2399", "act_25": "20", "act_mid": "23", "act_75": "26", "cost": "24599" }, "geometry": { "type": "Point", "coordinates": [ -86.8651, 33.10625 ] } },
{ "type": "Feature", "properties": { "latitude": 34.806738, "longitude": -87.681361, "name": "University of North Alabama", "city": "Florence", "us_state": "AL", "url": "www.una.edu", "population": "5846", "act_25": "19", "act_mid": "22", "act_75": "25", "cost": "16601" }, "geometry": { "type": "Point", "coordinates": [ -87.68136, 34.80674 ] } },
{ "type": "Feature", "properties": { "latitude": 30.696033, "longitude": -88.178711, "name": "University of South Alabama", "city": "Mobile", "us_state": "AL", "url": "www.southalabama.edu", "population": "11483", "act_25": "20", "act_mid": "22", "act_75": "23", "cost": "19511" }, "geometry": { "type": "Point", "coordinates": [ -88.17871, 30.69603 ] } },
{ "type": "Feature", "properties": { "latitude": 31.800672, "longitude": -85.957094, "name": "Troy University", "city": "Troy", "us_state": "AL", "url": "www.troy.edu", "population": "13745", "act_25": "18", "act_mid": "21", "act_75": "24", "cost": "18404" }, "geometry": { "type": "Point", "coordinates": [ -85.95709, 31.80067 ] } },
{ "type": "Feature", "properties": { "latitude": 64.85756, "longitude": -147.823146, "name": "University of Alaska Fairbanks", "city": "Fairbanks", "us_state": "AK", "url": "www.uaf.edu", "population": "5152", "act_25": "19", "act_mid": "23", "act_75": "26", "cost": "16694" }, "geometry": { "type": "Point", "coordinates": [ -147.82315, 64.85756 ] } },
{ "type": "Feature", "properties": { "latitude": 33.417721, "longitude": -111.934383, "name": "Arizona State University-Tempe", "city": "Tempe", "us_state": "AZ", "url": "www.asu.edu\/", "population": "42224", "act_25": "22", "act_mid": "25", "act_75": "28", "cost": "23931" }, "geometry": { "type": "Point", "coordinates": [ -111.93438, 33.41772 ] } },
{ "type": "Feature", "properties": { "latitude": 34.723254, "longitude": -92.339778, "name": "University of Arkansas at Little Rock", "city": "Little Rock", "us_state": "AR", "url": "ualr.edu\/www\/", "population": "7023", "act_25": "19", "act_mid": "22", "act_75": "25", "cost": "21392" }, "geometry": { "type": "Point", "coordinates": [ -92.33978, 34.72325 ] } },
{ "type": "Feature", "properties": { "latitude": 36.070009, "longitude": -94.176981, "name": "University of Arkansas", "city": "Fayetteville", "us_state": "AR", "url": "www.uark.edu", "population": "22254", "act_25": "23", "act_mid": "26", "act_75": "29", "cost": "21817" }, "geometry": { "type": "Point", "coordinates": [ -94.17698, 36.07001 ] } },
{ "type": "Feature", "properties": { "latitude": 34.244031, "longitude": -92.018683, "name": "University of Arkansas at Pine Bluff", "city": "Pine Bluff", "us_state": "AR", "url": "www.uapb.edu", "population": "2711", "act_25": "16", "act_mid": "19", "act_75": "21", "cost": "16319" }, "geometry": { "type": "Point", "coordinates": [ -92.01868, 34.24403 ] } },
{ "type": "Feature", "properties": { "latitude": 35.842388, "longitude": -90.679988, "name": "Arkansas State University-Main Campus", "city": "Jonesboro", "us_state": "AR", "url": "www.astate.edu\/", "population": "9128", "act_25": "21", "act_mid": "24", "act_75": "26", "cost": "20872" }, "geometry": { "type": "Point", "coordinates": [ -90.67999, 35.84239 ] } },
{ "type": "Feature", "properties": { "latitude": 35.077945, "longitude": -92.457672, "name": "University of Central Arkansas", "city": "Conway", "us_state": "AR", "url": "www.uca.edu", "population": "9082", "act_25": "20", "act_mid": "24", "act_75": "27", "cost": "20052" }, "geometry": { "type": "Point", "coordinates": [ -92.45767, 35.07794 ] } },
{ "type": "Feature", "properties": { "latitude": 34.128155, "longitude": -93.059703, "name": "Henderson State University", "city": "Arkadelphia", "us_state": "AR", "url": "www.hsu.edu", "population": "3048", "act_25": "19", "act_mid": "22", "act_75": "25", "cost": "20112" }, "geometry": { "type": "Point", "coordinates": [ -93.0597, 34.12815 ] } },
{ "type": "Feature", "properties": { "latitude": 35.172136, "longitude": -92.728507, "name": "University of Arkansas Community College-Morrilton", "city": "Morrilton", "us_state": "AR", "url": "www.uaccm.edu", "population": "1931", "act_25": "18", "act_mid": "20", "act_75": "22", "cost": "10795" }, "geometry": { "type": "Point", "coordinates": [ -92.72851, 35.17214 ] } },
{ "type": "Feature", "properties": { "latitude": 33.291618, "longitude": -93.235922, "name": "Southern Arkansas University Main Campus", "city": "Magnolia", "us_state": "AR", "url": "https:\/\/www.saumag.edu", "population": "3012", "act_25": "18", "act_mid": "21", "act_75": "24", "cost": "20696" }, "geometry": { "type": "Point", "coordinates": [ -93.23592, 33.29162 ] } },
{ "type": "Feature", "properties": { "latitude": 35.299513, "longitude": -120.657311, "name": "California Polytechnic State University-San Luis Obispo", "city": "San Luis Obispo", "us_state": "CA", "url": "calpoly.edu", "population": "20367", "act_25": "26", "act_mid": "29", "act_75": "31", "cost": "25300" }, "geometry": { "type": "Point", "coordinates": [ -120.65731, 35.29951 ] } },
{ "type": "Feature", "properties": { "latitude": 34.182622, "longitude": -117.323801, "name": "California State University-San Bernardino", "city": "San Bernardino", "us_state": "CA", "url": "www.csusb.edu", "population": "18317", "act_25": "16", "act_mid": "18", "act_75": "20", "cost": "15988" }, "geometry": { "type": "Point", "coordinates": [ -117.3238, 34.18262 ] } },
{ "type": "Feature", "properties": { "latitude": 34.054273, "longitude": -117.819019, "name": "California State Polytechnic University-Pomona", "city": "Pomona", "us_state": "CA", "url": "www.cpp.edu", "population": "23611", "act_25": "20", "act_mid": "24", "act_75": "27", "cost": "21223" }, "geometry": { "type": "Point", "coordinates": [ -117.81902, 34.05427 ] } },
{ "type": "Feature", "properties": { "latitude": 39.729712, "longitude": -121.844859, "name": "California State University-Chico", "city": "Chico", "us_state": "CA", "url": "www.csuchico.edu", "population": "16305", "act_25": "19", "act_mid": "22", "act_75": "24", "cost": "22417" }, "geometry": { "type": "Point", "coordinates": [ -121.84486, 39.72971 ] } },
{ "type": "Feature", "properties": { "latitude": 36.814477, "longitude": -119.748258, "name": "California State University-Fresno", "city": "Fresno", "us_state": "CA", "url": "www.csufresno.edu", "population": "21150", "act_25": "16", "act_mid": "19", "act_75": "22", "cost": "16078" }, "geometry": { "type": "Point", "coordinates": [ -119.74826, 36.81448 ] } },
{ "type": "Feature", "properties": { "latitude": 33.881506, "longitude": -117.885446, "name": "California State University-Fullerton", "city": "Fullerton", "us_state": "CA", "url": "www.fullerton.edu", "population": "34416", "act_25": "19", "act_mid": "22", "act_75": "24", "cost": "17049" }, "geometry": { "type": "Point", "coordinates": [ -117.88545, 33.88151 ] } },
{ "type": "Feature", "properties": { "latitude": 33.782818, "longitude": -118.11204, "name": "California State University-Long Beach", "city": "Long Beach", "us_state": "CA", "url": "www.csulb.edu", "population": "32170", "act_25": "20", "act_mid": "23", "act_75": "26", "cost": "18192" }, "geometry": { "type": "Point", "coordinates": [ -118.11204, 33.78282 ] } },
{ "type": "Feature", "properties": { "latitude": 34.066927, "longitude": -118.168965, "name": "California State University-Los Angeles", "city": "Los Angeles", "us_state": "CA", "url": "www.calstatela.edu", "population": "24046", "act_25": "15", "act_mid": "18", "act_75": "20", "cost": "13385" }, "geometry": { "type": "Point", "coordinates": [ -118.16897, 34.06693 ] } },
{ "type": "Feature", "properties": { "latitude": 34.240126, "longitude": -118.529319, "name": "California State University-Northridge", "city": "Northridge", "us_state": "CA", "url": "https:\/\/www.csun.edu", "population": "35605", "act_25": "16", "act_mid": "20", "act_75": "23", "cost": "16591" }, "geometry": { "type": "Point", "coordinates": [ -118.52932, 34.24013 ] } },
{ "type": "Feature", "properties": { "latitude": 38.559415, "longitude": -121.423549, "name": "California State University-Sacramento", "city": "Sacramento", "us_state": "CA", "url": "www.csus.edu", "population": "27884", "act_25": "17", "act_mid": "20", "act_75": "22", "cost": "18535" }, "geometry": { "type": "Point", "coordinates": [ -121.42355, 38.55942 ] } },
{ "type": "Feature", "properties": { "latitude": 37.871918, "longitude": -122.260463, "name": "University of California-Berkeley", "city": "Berkeley", "us_state": "CA", "url": "www.berkeley.edu", "population": "29309", "act_25": "31", "act_mid": "33", "act_75": "34", "cost": "34924" }, "geometry": { "type": "Point", "coordinates": [ -122.26046, 37.87192 ] } },
{ "type": "Feature", "properties": { "latitude": 38.539667, "longitude": -121.749567, "name": "University of California-Davis", "city": "Davis", "us_state": "CA", "url": "www.ucdavis.edu", "population": "29358", "act_25": "25", "act_mid": "28", "act_75": "31", "cost": "33904" }, "geometry": { "type": "Point", "coordinates": [ -121.74957, 38.53967 ] } },
{ "type": "Feature", "properties": { "latitude": 33.648434, "longitude": -117.841248, "name": "University of California-Irvine", "city": "Irvine", "us_state": "CA", "url": "www.uci.edu\/", "population": "27317", "act_25": "24", "act_mid": "27", "act_75": "30", "cost": "31198" }, "geometry": { "type": "Point", "coordinates": [ -117.84125, 33.64843 ] } },
{ "type": "Feature", "properties": { "latitude": 34.068892, "longitude": -118.443901, "name": "University of California-Los Angeles", "city": "Los Angeles", "us_state": "CA", "url": "www.ucla.edu\/", "population": "30859", "act_25": "28", "act_mid": "31", "act_75": "33", "cost": "33078" }, "geometry": { "type": "Point", "coordinates": [ -118.4439, 34.06889 ] } },
{ "type": "Feature", "properties": { "latitude": 33.97246, "longitude": -117.32741, "name": "University of California-Riverside", "city": "Riverside", "us_state": "CA", "url": "WWW.UCR.EDU", "population": "19788", "act_25": "21", "act_mid": "24", "act_75": "27", "cost": "31494" }, "geometry": { "type": "Point", "coordinates": [ -117.32741, 33.97246 ] } },
{ "type": "Feature", "properties": { "latitude": 32.876598, "longitude": -117.237793, "name": "University of California-San Diego", "city": "La Jolla", "us_state": "CA", "url": "www.ucsd.edu", "population": "28121", "act_25": "27", "act_mid": "30", "act_75": "33", "cost": "31043" }, "geometry": { "type": "Point", "coordinates": [ -117.23779, 32.8766 ] } },
{ "type": "Feature", "properties": { "latitude": 34.416297, "longitude": -119.846426, "name": "University of California-Santa Barbara", "city": "Santa Barbara", "us_state": "CA", "url": "www.ucsb.edu", "population": "21570", "act_25": "27", "act_mid": "30", "act_75": "32", "cost": "34998" }, "geometry": { "type": "Point", "coordinates": [ -119.84643, 34.4163 ] } },
{ "type": "Feature", "properties": { "latitude": 36.995584, "longitude": -122.058801, "name": "University of California-Santa Cruz", "city": "Santa Cruz", "us_state": "CA", "url": "www.ucsc.edu\/", "population": "16962", "act_25": "25", "act_mid": "28", "act_75": "30", "cost": "34608" }, "geometry": { "type": "Point", "coordinates": [ -122.0588, 36.99558 ] } },
{ "type": "Feature", "properties": { "latitude": 40.877481, "longitude": -124.078293, "name": "Humboldt State University", "city": "Arcata", "us_state": "CA", "url": "www.humboldt.edu", "population": "7956", "act_25": "18", "act_mid": "21", "act_75": "24", "cost": "23139" }, "geometry": { "type": "Point", "coordinates": [ -124.07829, 40.87748 ] } },
{ "type": "Feature", "properties": { "latitude": 32.77525, "longitude": -117.071228, "name": "San Diego State University", "city": "San Diego", "us_state": "CA", "url": "www.sdsu.edu", "population": "29398", "act_25": "23", "act_mid": "26", "act_75": "28", "cost": "22056" }, "geometry": { "type": "Point", "coordinates": [ -117.07123, 32.77525 ] } },
{ "type": "Feature", "properties": { "latitude": 37.721345, "longitude": -122.477905, "name": "San Francisco State University", "city": "San Francisco", "us_state": "CA", "url": "www.sfsu.edu", "population": "24882", "act_25": "18", "act_mid": "21", "act_75": "24", "cost": "22396" }, "geometry": { "type": "Point", "coordinates": [ -122.47791, 37.72134 ] } },
{ "type": "Feature", "properties": { "latitude": 37.336569, "longitude": -121.880621, "name": "San Jose State University", "city": "San Jose", "us_state": "CA", "url": "www.sjsu.edu", "population": "26253", "act_25": "20", "act_mid": "23", "act_75": "25", "cost": "22780" }, "geometry": { "type": "Point", "coordinates": [ -121.88062, 37.33657 ] } },
{ "type": "Feature", "properties": { "latitude": 38.340274, "longitude": -122.677066, "name": "Sonoma State University", "city": "Rohnert Park", "us_state": "CA", "url": "www.sonoma.edu", "population": "8572", "act_25": "19", "act_mid": "22", "act_75": "24", "cost": "24000" }, "geometry": { "type": "Point", "coordinates": [ -122.67707, 38.34027 ] } },
{ "type": "Feature", "properties": { "latitude": 37.473636, "longitude": -105.879642, "name": "Adams State University", "city": "Alamosa", "us_state": "CO", "url": "www.adams.edu", "population": "1982", "act_25": "17", "act_mid": "20", "act_75": "22", "cost": "21026" }, "geometry": { "type": "Point", "coordinates": [ -105.87964, 37.47364 ] } },
{ "type": "Feature", "properties": { "latitude": 39.745149, "longitude": -104.837722, "name": "University of Colorado Denver\/Anschutz Medical Campus", "city": "Denver", "us_state": "CO", "url": "www.ucdenver.edu\/", "population": "11228", "act_25": "21", "act_mid": "24", "act_75": "26", "cost": "20306" }, "geometry": { "type": "Point", "coordinates": [ -104.83772, 39.74515 ] } },
{ "type": "Feature", "properties": { "latitude": 38.892735, "longitude": -104.800296, "name": "University of Colorado Colorado Springs", "city": "Colorado Springs", "us_state": "CO", "url": "https:\/\/www.uccs.edu", "population": "10153", "act_25": "20", "act_mid": "23", "act_75": "26", "cost": "21038" }, "geometry": { "type": "Point", "coordinates": [ -104.8003, 38.89274 ] } },
{ "type": "Feature", "properties": { "latitude": 40.008781, "longitude": -105.270823, "name": "University of Colorado Boulder", "city": "Boulder", "us_state": "CO", "url": "www.colorado.edu", "population": "27376", "act_25": "25", "act_mid": "28", "act_75": "30", "cost": "31393" }, "geometry": { "type": "Point", "coordinates": [ -105.27082, 40.00878 ] } },
{ "type": "Feature", "properties": { "latitude": 39.751443, "longitude": -105.223364, "name": "Colorado School of Mines", "city": "Golden", "us_state": "CO", "url": "www.mines.edu", "population": "4564", "act_25": "29", "act_mid": "31", "act_75": "32", "cost": "31226" }, "geometry": { "type": "Point", "coordinates": [ -105.22336, 39.75144 ] } },
{ "type": "Feature", "properties": { "latitude": 40.574805, "longitude": -105.080732, "name": "Colorado State University-Fort Collins", "city": "Fort Collins", "us_state": "CO", "url": "www.colostate.edu", "population": "23497", "act_25": "23", "act_mid": "26", "act_75": "28", "cost": "24885" }, "geometry": { "type": "Point", "coordinates": [ -105.08073, 40.5748 ] } },
{ "type": "Feature", "properties": { "latitude": 37.275939, "longitude": -107.867422, "name": "Fort Lewis College", "city": "Durango", "us_state": "CO", "url": "fortlewis.edu\/", "population": "3443", "act_25": "19", "act_mid": "22", "act_75": "24", "cost": "24298" }, "geometry": { "type": "Point", "coordinates": [ -107.86742, 37.27594 ] } },
{ "type": "Feature", "properties": { "latitude": 39.080643, "longitude": -108.553275, "name": "Colorado Mesa University", "city": "Grand Junction", "us_state": "CO", "url": "www.coloradomesa.edu", "population": "8734", "act_25": "18", "act_mid": "21", "act_75": "24", "cost": "19224" }, "geometry": { "type": "Point", "coordinates": [ -108.55327, 39.08064 ] } },
{ "type": "Feature", "properties": { "latitude": 39.744202, "longitude": -105.00504, "name": "Metropolitan State University of Denver", "city": "Denver", "us_state": "CO", "url": "www.msudenver.edu\/", "population": "19334", "act_25": "17", "act_mid": "20", "act_75": "23", "cost": "18017" }, "geometry": { "type": "Point", "coordinates": [ -105.00504, 39.7442 ] } },
{ "type": "Feature", "properties": { "latitude": 40.410855, "longitude": -104.692777, "name": "University of Northern Colorado", "city": "Greeley", "us_state": "CO", "url": "www.unco.edu", "population": "9098", "act_25": "19", "act_mid": "22", "act_75": "25", "cost": "21640" }, "geometry": { "type": "Point", "coordinates": [ -104.69278, 40.41085 ] } },
{ "type": "Feature", "properties": { "latitude": 38.30859, "longitude": -104.579033, "name": "Colorado State University-Pueblo", "city": "Pueblo", "us_state": "CO", "url": "https:\/\/www.csupueblo.edu", "population": "3953", "act_25": "18", "act_mid": "21", "act_75": "23", "cost": "19561" }, "geometry": { "type": "Point", "coordinates": [ -104.57903, 38.30859 ] } },
{ "type": "Feature", "properties": { "latitude": 38.549436, "longitude": -106.918439, "name": "Western State Colorado University", "city": "Gunnison", "us_state": "CO", "url": "www.western.edu", "population": "1987", "act_25": "19", "act_mid": "22", "act_75": "25", "cost": "21431" }, "geometry": { "type": "Point", "coordinates": [ -106.91844, 38.54944 ] } },
{ "type": "Feature", "properties": { "latitude": 41.692502, "longitude": -72.765991, "name": "Central Connecticut State University", "city": "New Britain", "us_state": "CT", "url": "www.ccsu.edu", "population": "9269", "act_25": "19", "act_mid": "22", "act_75": "24", "cost": "21706" }, "geometry": { "type": "Point", "coordinates": [ -72.76599, 41.6925 ] } },
{ "type": "Feature", "properties": { "latitude": 41.809098, "longitude": -72.249948, "name": "University of Connecticut", "city": "Storrs", "us_state": "CT", "url": "uconn.edu\/", "population": "19030", "act_25": "26", "act_mid": "29", "act_75": "31", "cost": "29128" }, "geometry": { "type": "Point", "coordinates": [ -72.24995, 41.8091 ] } },
{ "type": "Feature", "properties": { "latitude": 41.333225, "longitude": -72.947897, "name": "Southern Connecticut State University", "city": "New Haven", "us_state": "CT", "url": "www.southernct.edu", "population": "7963", "act_25": "18", "act_mid": "21", "act_75": "23", "cost": "21029" }, "geometry": { "type": "Point", "coordinates": [ -72.9479, 41.33322 ] } },
{ "type": "Feature", "properties": { "latitude": 39.187173, "longitude": -75.54053, "name": "Delaware State University", "city": "Dover", "us_state": "DE", "url": "www.desu.edu", "population": "3692", "act_25": "17", "act_mid": "19", "act_75": "21", "cost": "21177" }, "geometry": { "type": "Point", "coordinates": [ -75.54053, 39.18717 ] } },
{ "type": "Feature", "properties": { "latitude": 39.679577, "longitude": -75.752822, "name": "University of Delaware", "city": "Newark", "us_state": "DE", "url": "www.udel.edu\/", "population": "18510", "act_25": "22", "act_mid": "26", "act_75": "29", "cost": "24557" }, "geometry": { "type": "Point", "coordinates": [ -75.75282, 39.67958 ] } },
{ "type": "Feature", "properties": { "latitude": 28.602159, "longitude": -81.200889, "name": "University of Central Florida", "city": "Orlando", "us_state": "FL", "url": "www.ucf.edu\/", "population": "55113", "act_25": "24", "act_mid": "26", "act_75": "28", "cost": "21168" }, "geometry": { "type": "Point", "coordinates": [ -81.20089, 28.60216 ] } },
{ "type": "Feature", "properties": { "latitude": 30.428504, "longitude": -84.290226, "name": "Florida Agricultural and Mechanical University", "city": "Tallahassee", "us_state": "FL", "url": "www.famu.edu", "population": "7365", "act_25": "19", "act_mid": "22", "act_75": "24", "cost": "20231" }, "geometry": { "type": "Point", "coordinates": [ -84.29023, 30.4285 ] } },
{ "type": "Feature", "properties": { "latitude": 26.372421, "longitude": -80.102978, "name": "Florida Atlantic University", "city": "Boca Raton", "us_state": "FL", "url": "www.fau.edu\/", "population": "24221", "act_25": "20", "act_mid": "23", "act_75": "25", "cost": "18992" }, "geometry": { "type": "Point", "coordinates": [ -80.10298, 26.37242 ] } },
{ "type": "Feature", "properties": { "latitude": 25.75732, "longitude": -80.373928, "name": "Florida International University", "city": "Miami", "us_state": "FL", "url": "www.fiu.edu", "population": "41112", "act_25": "23", "act_mid": "25", "act_75": "27", "cost": "18873" }, "geometry": { "type": "Point", "coordinates": [ -80.37393, 25.75732 ] } },
{ "type": "Feature", "properties": { "latitude": 30.440756, "longitude": -84.291921, "name": "Florida State University", "city": "Tallahassee", "us_state": "FL", "url": "www.fsu.edu", "population": "32417", "act_25": "25", "act_mid": "27", "act_75": "29", "cost": "21938" }, "geometry": { "type": "Point", "coordinates": [ -84.29192, 30.44076 ] } },
{ "type": "Feature", "properties": { "latitude": 29.64629, "longitude": -82.347911, "name": "University of Florida", "city": "Gainesville", "us_state": "FL", "url": "www.ufl.edu\/", "population": "33309", "act_25": "27", "act_mid": "29", "act_75": "31", "cost": "20571" }, "geometry": { "type": "Point", "coordinates": [ -82.34791, 29.64629 ] } },
{ "type": "Feature", "properties": { "latitude": 30.27194, "longitude": -81.509144, "name": "University of North Florida", "city": "Jacksonville", "us_state": "FL", "url": "www.unf.edu", "population": "13585", "act_25": "21", "act_mid": "24", "act_75": "26", "cost": "20926" }, "geometry": { "type": "Point", "coordinates": [ -81.50914, 30.27194 ] } },
{ "type": "Feature", "properties": { "latitude": 28.061458, "longitude": -82.413232, "name": "University of South Florida-Main Campus", "city": "Tampa", "us_state": "FL", "url": "www.usf.edu", "population": "30553", "act_25": "24", "act_mid": "26", "act_75": "28", "cost": "19652" }, "geometry": { "type": "Point", "coordinates": [ -82.41323, 28.06146 ] } },
{ "type": "Feature", "properties": { "latitude": 30.549076, "longitude": -87.218511, "name": "The University of West Florida", "city": "Pensacola", "us_state": "FL", "url": "uwf.edu", "population": "9657", "act_25": "21", "act_mid": "24", "act_75": "26", "cost": "17219" }, "geometry": { "type": "Point", "coordinates": [ -87.21851, 30.54908 ] } },
{ "type": "Feature", "properties": { "latitude": 31.481889, "longitude": -83.528281, "name": "Abraham Baldwin Agricultural College", "city": "Tifton", "us_state": "GA", "url": "www.abac.edu", "population": "3233", "act_25": "17", "act_mid": "20", "act_75": "22", "cost": "13171" }, "geometry": { "type": "Point", "coordinates": [ -83.52828, 31.48189 ] } },
{ "type": "Feature", "properties": { "latitude": 31.56928, "longitude": -84.141825, "name": "Albany State University", "city": "Albany", "us_state": "GA", "url": "https:\/\/www.asurams.edu\/", "population": "2576", "act_25": "17", "act_mid": "19", "act_75": "20", "cost": "19126" }, "geometry": { "type": "Point", "coordinates": [ -84.14182, 31.56928 ] } },
{ "type": "Feature", "properties": { "latitude": 31.979073, "longitude": -81.161803, "name": "Armstrong State University", "city": "Savannah", "us_state": "GA", "url": "https:\/\/www.armstrong.edu", "population": "6180", "act_25": "19", "act_mid": "21", "act_75": "23", "cost": "25433" }, "geometry": { "type": "Point", "coordinates": [ -81.1618, 31.97907 ] } },
{ "type": "Feature", "properties": { "latitude": 31.182745, "longitude": -81.485973, "name": "College of Coastal Georgia", "city": "Brunswick", "us_state": "GA", "url": "www.ccga.edu", "population": "3174", "act_25": "16", "act_mid": "19", "act_75": "21", "cost": "15763" }, "geometry": { "type": "Point", "coordinates": [ -81.48597, 31.18275 ] } },
{ "type": "Feature", "properties": { "latitude": 32.50096, "longitude": -84.94106, "name": "Columbus State University", "city": "Columbus", "us_state": "GA", "url": "www.columbusstate.edu", "population": "6557", "act_25": "17", "act_mid": "20", "act_75": "23", "cost": "18465" }, "geometry": { "type": "Point", "coordinates": [ -84.94106, 32.50096 ] } },
{ "type": "Feature", "properties": { "latitude": 32.537595, "longitude": -83.89537, "name": "Fort Valley State University", "city": "Fort Valley", "us_state": "GA", "url": "www.fvsu.edu", "population": "2223", "act_25": "10", "act_mid": "15", "act_75": "19", "cost": "19486" }, "geometry": { "type": "Point", "coordinates": [ -83.89537, 32.5376 ] } },
{ "type": "Feature", "properties": { "latitude": 33.77242, "longitude": -84.394832, "name": "Georgia Institute of Technology-Main Campus", "city": "Atlanta", "us_state": "GA", "url": "www.gatech.edu", "population": "14766", "act_25": "30", "act_mid": "32", "act_75": "34", "cost": "25616" }, "geometry": { "type": "Point", "coordinates": [ -84.39483, 33.77242 ] } },
{ "type": "Feature", "properties": { "latitude": 32.054662, "longitude": -84.217738, "name": "Georgia Southwestern State University", "city": "Americus", "us_state": "GA", "url": "https:\/\/gsw.edu\/", "population": "2409", "act_25": "19", "act_mid": "21", "act_75": "23", "cost": "19297" }, "geometry": { "type": "Point", "coordinates": [ -84.21774, 32.05466 ] } },
{ "type": "Feature", "properties": { "latitude": 33.082787, "longitude": -83.231962, "name": "Georgia College & State University", "city": "Milledgeville", "us_state": "GA", "url": "www.gcsu.edu\/", "population": "5923", "act_25": "22", "act_mid": "24", "act_75": "26", "cost": "26856" }, "geometry": { "type": "Point", "coordinates": [ -83.23196, 33.08279 ] } },
{ "type": "Feature", "properties": { "latitude": 32.428808, "longitude": -81.782232, "name": "Georgia Southern University", "city": "Statesboro", "us_state": "GA", "url": "www.georgiasouthern.edu", "population": "17349", "act_25": "22", "act_mid": "24", "act_75": "26", "cost": "22417" }, "geometry": { "type": "Point", "coordinates": [ -81.78223, 32.42881 ] } },
{ "type": "Feature", "properties": { "latitude": 33.7527, "longitude": -84.38667, "name": "Georgia State University", "city": "Atlanta", "us_state": "GA", "url": "www.gsu.edu", "population": "24478", "act_25": "20", "act_mid": "23", "act_75": "26", "cost": "24223" }, "geometry": { "type": "Point", "coordinates": [ -84.38667, 33.7527 ] } },
{ "type": "Feature", "properties": { "latitude": 33.956262, "longitude": -83.374039, "name": "University of Georgia", "city": "Athens", "us_state": "GA", "url": "www.uga.edu", "population": "27851", "act_25": "26", "act_mid": "29", "act_75": "31", "cost": "24991" }, "geometry": { "type": "Point", "coordinates": [ -83.37404, 33.95626 ] } },
{ "type": "Feature", "properties": { "latitude": 33.04571, "longitude": -84.154508, "name": "Gordon State College", "city": "Barnesville", "us_state": "GA", "url": "www.gordonstate.edu", "population": "3577", "act_25": "15", "act_mid": "18", "act_75": "20", "cost": "18449" }, "geometry": { "type": "Point", "coordinates": [ -84.15451, 33.04571 ] } },
{ "type": "Feature", "properties": { "latitude": 32.024781, "longitude": -81.063377, "name": "Savannah State University", "city": "Savannah", "us_state": "GA", "url": "www.savannahstate.edu\/", "population": "4627", "act_25": "16", "act_mid": "17", "act_75": "18", "cost": "16542" }, "geometry": { "type": "Point", "coordinates": [ -81.06338, 32.02478 ] } },
{ "type": "Feature", "properties": { "latitude": 30.847402, "longitude": -83.289282, "name": "Valdosta State University", "city": "Valdosta", "us_state": "GA", "url": "www.valdosta.edu", "population": "8589", "act_25": "19", "act_mid": "21", "act_75": "23", "cost": "21191" }, "geometry": { "type": "Point", "coordinates": [ -83.28928, 30.8474 ] } },
{ "type": "Feature", "properties": { "latitude": 33.573621, "longitude": -85.097762, "name": "University of West Georgia", "city": "Carrollton", "us_state": "GA", "url": "www.westga.edu", "population": "10599", "act_25": "18", "act_mid": "20", "act_75": "22", "cost": "21242" }, "geometry": { "type": "Point", "coordinates": [ -85.09776, 33.57362 ] } },
{ "type": "Feature", "properties": { "latitude": 19.701189, "longitude": -155.080847, "name": "University of Hawaii at Hilo", "city": "Hilo", "us_state": "HI", "url": "www.hilo.hawaii.edu", "population": "2962", "act_25": "18", "act_mid": "21", "act_75": "24", "cost": "19087" }, "geometry": { "type": "Point", "coordinates": [ -155.08085, 19.70119 ] } },
{ "type": "Feature", "properties": { "latitude": 21.298598, "longitude": -157.818979, "name": "University of Hawaii at Manoa", "city": "Honolulu", "us_state": "HI", "url": "www.manoa.hawaii.edu", "population": "12767", "act_25": "20", "act_mid": "23", "act_75": "26", "cost": "22153" }, "geometry": { "type": "Point", "coordinates": [ -157.81898, 21.2986 ] } },
{ "type": "Feature", "properties": { "latitude": 43.604284, "longitude": -116.203301, "name": "Boise State University", "city": "Boise", "us_state": "ID", "url": "www.boisestate.edu", "population": "16045", "act_25": "20", "act_mid": "23", "act_75": "26", "cost": "18298" }, "geometry": { "type": "Point", "coordinates": [ -116.2033, 43.60428 ] } },
{ "type": "Feature", "properties": { "latitude": 46.727406, "longitude": -117.014167, "name": "University of Idaho", "city": "Moscow", "us_state": "ID", "url": "www.uidaho.edu", "population": "7735", "act_25": "21", "act_mid": "24", "act_75": "27", "cost": "20045" }, "geometry": { "type": "Point", "coordinates": [ -117.01417, 46.72741 ] } },
{ "type": "Feature", "properties": { "latitude": 46.412199, "longitude": -117.024875, "name": "Lewis-Clark State College", "city": "Lewiston", "us_state": "ID", "url": "www.lcsc.edu", "population": "3038", "act_25": "18", "act_mid": "21", "act_75": "23", "cost": "15475" }, "geometry": { "type": "Point", "coordinates": [ -117.02487, 46.4122 ] } },
{ "type": "Feature", "properties": { "latitude": 41.718446, "longitude": -87.609384, "name": "Chicago State University", "city": "Chicago", "us_state": "IL", "url": "www.csu.edu", "population": "2352", "act_25": "16", "act_mid": "18", "act_75": "20", "cost": "21509" }, "geometry": { "type": "Point", "coordinates": [ -87.60938, 41.71845 ] } },
{ "type": "Feature", "properties": { "latitude": 39.479843, "longitude": -88.175658, "name": "Eastern Illinois University", "city": "Charleston", "us_state": "IL", "url": "https:\/\/www.eiu.edu\/", "population": "5750", "act_25": "18", "act_mid": "21", "act_75": "24", "cost": "22957" }, "geometry": { "type": "Point", "coordinates": [ -88.17566, 39.47984 ] } },
{ "type": "Feature", "properties": { "latitude": 41.449103, "longitude": -87.716441, "name": "Governors State University", "city": "University Park", "us_state": "IL", "url": "www.govst.edu\/", "population": "3469", "act_25": "17", "act_mid": "19", "act_75": "21", "cost": "24159" }, "geometry": { "type": "Point", "coordinates": [ -87.71644, 41.4491 ] } },
{ "type": "Feature", "properties": { "latitude": 41.871837, "longitude": -87.650503, "name": "University of Illinois at Chicago", "city": "Chicago", "us_state": "IL", "url": "www.uic.edu", "population": "17804", "act_25": "21", "act_mid": "24", "act_75": "27", "cost": "25131" }, "geometry": { "type": "Point", "coordinates": [ -87.6505, 41.87184 ] } },
{ "type": "Feature", "properties": { "latitude": 40.104718, "longitude": -88.229114, "name": "University of Illinois at Urbana-Champaign", "city": "Champaign", "us_state": "IL", "url": "www.illinois.edu\/", "population": "32752", "act_25": "26", "act_mid": "29", "act_75": "32", "cost": "29764" }, "geometry": { "type": "Point", "coordinates": [ -88.22911, 40.10472 ] } },
{ "type": "Feature", "properties": { "latitude": 40.509403, "longitude": -88.990058, "name": "Illinois State University", "city": "Normal", "us_state": "IL", "url": "illinoisstate.edu\/", "population": "18571", "act_25": "21", "act_mid": "24", "act_75": "26", "cost": "27421" }, "geometry": { "type": "Point", "coordinates": [ -88.99006, 40.5094 ] } },
{ "type": "Feature", "properties": { "latitude": 41.933869, "longitude": -88.766428, "name": "Northern Illinois University", "city": "Dekalb", "us_state": "IL", "url": "www.niu.edu", "population": "14036", "act_25": "19", "act_mid": "22", "act_75": "25", "cost": "28725" }, "geometry": { "type": "Point", "coordinates": [ -88.76643, 41.93387 ] } },
{ "type": "Feature", "properties": { "latitude": 41.980399, "longitude": -87.718983, "name": "Northeastern Illinois University", "city": "Chicago", "us_state": "IL", "url": "www.neiu.edu\/", "population": "7570", "act_25": "16", "act_mid": "18", "act_75": "20", "cost": "23097" }, "geometry": { "type": "Point", "coordinates": [ -87.71898, 41.9804 ] } },
{ "type": "Feature", "properties": { "latitude": 39.729524, "longitude": -89.616796, "name": "University of Illinois at Springfield", "city": "Springfield", "us_state": "IL", "url": "www.uis.edu", "population": "2877", "act_25": "20", "act_mid": "23", "act_75": "26", "cost": "23469" }, "geometry": { "type": "Point", "coordinates": [ -89.6168, 39.72952 ] } },
{ "type": "Feature", "properties": { "latitude": 37.714193, "longitude": -89.217273, "name": "Southern Illinois University-Carbondale", "city": "Carbondale", "us_state": "IL", "url": "www.siu.edu", "population": "12056", "act_25": "19", "act_mid": "22", "act_75": "25", "cost": "26868" }, "geometry": { "type": "Point", "coordinates": [ -89.21727, 37.71419 ] } },
{ "type": "Feature", "properties": { "latitude": 38.793949, "longitude": -89.997779, "name": "Southern Illinois University-Edwardsville", "city": "Edwardsville", "us_state": "IL", "url": "www.siue.edu", "population": "11652", "act_25": "20", "act_mid": "23", "act_75": "26", "cost": "21538" }, "geometry": { "type": "Point", "coordinates": [ -89.99778, 38.79395 ] } },
{ "type": "Feature", "properties": { "latitude": 40.468086, "longitude": -90.686899, "name": "Western Illinois University", "city": "Macomb", "us_state": "IL", "url": "www.wiu.edu", "population": "8543", "act_25": "18", "act_mid": "21", "act_75": "23", "cost": "25280" }, "geometry": { "type": "Point", "coordinates": [ -90.6869, 40.46809 ] } },
{ "type": "Feature", "properties": { "latitude": 40.203431, "longitude": -85.409043, "name": "Ball State University", "city": "Muncie", "us_state": "IN", "url": "www.bsu.edu", "population": "16260", "act_25": "20", "act_mid": "22", "act_75": "24", "cost": "23157" }, "geometry": { "type": "Point", "coordinates": [ -85.40904, 40.20343 ] } },
{ "type": "Feature", "properties": { "latitude": 41.117278, "longitude": -85.108962, "name": "Indiana University-Purdue University-Fort Wayne", "city": "Fort Wayne", "us_state": "IN", "url": "www.ipfw.edu", "population": "8302", "act_25": "18", "act_mid": "21", "act_75": "24", "cost": "18025" }, "geometry": { "type": "Point", "coordinates": [ -85.10896, 41.11728 ] } },
{ "type": "Feature", "properties": { "latitude": 39.772948, "longitude": -86.172217, "name": "Indiana University-Purdue University-Indianapolis", "city": "Indianapolis", "us_state": "IN", "url": "www.iupui.edu", "population": "21001", "act_25": "19", "act_mid": "23", "act_75": "26", "cost": "20451" }, "geometry": { "type": "Point", "coordinates": [ -86.17222, 39.77295 ] } },
{ "type": "Feature", "properties": { "latitude": 37.962374, "longitude": -87.677214, "name": "University of Southern Indiana", "city": "Evansville", "us_state": "IN", "url": "www.usi.edu", "population": "7764", "act_25": "19", "act_mid": "22", "act_75": "25", "cost": "17692" }, "geometry": { "type": "Point", "coordinates": [ -87.67721, 37.96237 ] } },
{ "type": "Feature", "properties": { "latitude": 39.469073, "longitude": -87.407846, "name": "Indiana State University", "city": "Terre Haute", "us_state": "IN", "url": "www.indstate.edu", "population": "10601", "act_25": "16", "act_mid": "19", "act_75": "22", "cost": "20140" }, "geometry": { "type": "Point", "coordinates": [ -87.40785, 39.46907 ] } },
{ "type": "Feature", "properties": { "latitude": 40.460062, "longitude": -86.132048, "name": "Indiana University-Kokomo", "city": "Kokomo", "us_state": "IN", "url": "www.iuk.edu", "population": "2771", "act_25": "18", "act_mid": "21", "act_75": "23", "cost": "16331" }, "geometry": { "type": "Point", "coordinates": [ -86.13205, 40.46006 ] } },
{ "type": "Feature", "properties": { "latitude": 41.665324, "longitude": -86.221991, "name": "Indiana University-South Bend", "city": "South Bend", "us_state": "IN", "url": "https:\/\/iusb.edu\/", "population": "4981", "act_25": "18", "act_mid": "21", "act_75": "23", "cost": "16584" }, "geometry": { "type": "Point", "coordinates": [ -86.22199, 41.66532 ] } },
{ "type": "Feature", "properties": { "latitude": 39.16609, "longitude": -86.526559, "name": "Indiana University-Bloomington", "city": "Bloomington", "us_state": "IN", "url": "www.iub.edu", "population": "32924", "act_25": "24", "act_mid": "27", "act_75": "30", "cost": "24432" }, "geometry": { "type": "Point", "coordinates": [ -86.52656, 39.16609 ] } },
{ "type": "Feature", "properties": { "latitude": 41.557324, "longitude": -87.337249, "name": "Indiana University-Northwest", "city": "Gary", "us_state": "IN", "url": "www.iun.edu", "population": "3727", "act_25": "18", "act_mid": "21", "act_75": "23", "cost": "14022" }, "geometry": { "type": "Point", "coordinates": [ -87.33725, 41.55732 ] } },
{ "type": "Feature", "properties": { "latitude": 38.345191, "longitude": -85.819985, "name": "Indiana University-Southeast", "city": "New Albany", "us_state": "IN", "url": "https:\/\/ius.edu\/", "population": "4964", "act_25": "17", "act_mid": "20", "act_75": "23", "cost": "16760" }, "geometry": { "type": "Point", "coordinates": [ -85.81999, 38.34519 ] } },
{ "type": "Feature", "properties": { "latitude": 39.868707, "longitude": -84.881923, "name": "Indiana University-East", "city": "Richmond", "us_state": "IN", "url": "www.iue.edu\/", "population": "3082", "act_25": "18", "act_mid": "21", "act_75": "23", "cost": "15715" }, "geometry": { "type": "Point", "coordinates": [ -84.88192, 39.86871 ] } },
{ "type": "Feature", "properties": { "latitude": 41.584326, "longitude": -87.474034, "name": "Purdue University-Calumet Campus", "city": "Hammond", "us_state": "IN", "url": "www.pnw.edu\/", "population": "7100", "act_25": "18", "act_mid": "21", "act_75": "24", "cost": "16667" }, "geometry": { "type": "Point", "coordinates": [ -87.47403, 41.58433 ] } },
{ "type": "Feature", "properties": { "latitude": 41.582527, "longitude": -86.893713, "name": "Purdue University-North Central Campus", "city": "Westville", "us_state": "IN", "url": "www.pnw.edu\/", "population": "2519", "act_25": "19", "act_mid": "21", "act_75": "23", "cost": "14017" }, "geometry": { "type": "Point", "coordinates": [ -86.89371, 41.58253 ] } },
{ "type": "Feature", "properties": { "latitude": 42.026212, "longitude": -93.648504, "name": "Iowa State University", "city": "Ames", "us_state": "IA", "url": "www.iastate.edu", "population": "30224", "act_25": "22", "act_mid": "25", "act_75": "28", "cost": "19182" }, "geometry": { "type": "Point", "coordinates": [ -93.6485, 42.02621 ] } },
{ "type": "Feature", "properties": { "latitude": 41.661935, "longitude": -91.536425, "name": "University of Iowa", "city": "Iowa City", "us_state": "IA", "url": "www.uiowa.edu", "population": "22990", "act_25": "23", "act_mid": "26", "act_75": "28", "cost": "21010" }, "geometry": { "type": "Point", "coordinates": [ -91.53642, 41.66193 ] } },
{ "type": "Feature", "properties": { "latitude": 42.514923, "longitude": -92.459703, "name": "University of Northern Iowa", "city": "Cedar Falls", "us_state": "IA", "url": "www.uni.edu", "population": "9943", "act_25": "20", "act_mid": "23", "act_75": "25", "cost": "19751" }, "geometry": { "type": "Point", "coordinates": [ -92.4597, 42.51492 ] } },
{ "type": "Feature", "properties": { "latitude": 38.414784, "longitude": -96.179021, "name": "Emporia State University", "city": "Emporia", "us_state": "KS", "url": "www.emporia.edu", "population": "3578", "act_25": "19", "act_mid": "22", "act_75": "25", "cost": "17347" }, "geometry": { "type": "Point", "coordinates": [ -96.17902, 38.41478 ] } },
{ "type": "Feature", "properties": { "latitude": 38.938834, "longitude": -95.232879, "name": "Haskell Indian Nations University", "city": "Lawrence", "us_state": "KS", "url": "www.haskell.edu", "population": "820", "act_25": "16", "act_mid": "18", "act_75": "20", "cost": "9153" }, "geometry": { "type": "Point", "coordinates": [ -95.23288, 38.93883 ] } },
{ "type": "Feature", "properties": { "latitude": 38.958549, "longitude": -95.247567, "name": "University of Kansas", "city": "Lawrence", "us_state": "KS", "url": "www.ku.edu", "population": "18845", "act_25": "23", "act_mid": "26", "act_75": "29", "cost": "23687" }, "geometry": { "type": "Point", "coordinates": [ -95.24757, 38.95855 ] } },
{ "type": "Feature", "properties": { "latitude": 37.392071, "longitude": -94.702473, "name": "Pittsburg State University", "city": "Pittsburg", "us_state": "KS", "url": "www.pittstate.edu", "population": "5536", "act_25": "19", "act_mid": "22", "act_75": "24", "cost": "17292" }, "geometry": { "type": "Point", "coordinates": [ -94.70247, 37.39207 ] } },
{ "type": "Feature", "properties": { "latitude": 37.718882, "longitude": -97.292361, "name": "Wichita State University", "city": "Wichita", "us_state": "KS", "url": "www.wichita.edu", "population": "11030", "act_25": "21", "act_mid": "24", "act_75": "27", "cost": "18646" }, "geometry": { "type": "Point", "coordinates": [ -97.29236, 37.71888 ] } },
{ "type": "Feature", "properties": { "latitude": 37.740845, "longitude": -84.300796, "name": "Eastern Kentucky University", "city": "Richmond", "us_state": "KY", "url": "www.eku.edu", "population": "13127", "act_25": "20", "act_mid": "23", "act_75": "25", "cost": "19584" }, "geometry": { "type": "Point", "coordinates": [ -84.3008, 37.74085 ] } },
{ "type": "Feature", "properties": { "latitude": 38.201427, "longitude": -84.855402, "name": "Kentucky State University", "city": "Frankfort", "us_state": "KY", "url": "www.kysu.edu", "population": "1287", "act_25": "17", "act_mid": "19", "act_75": "21", "cost": "17874" }, "geometry": { "type": "Point", "coordinates": [ -84.8554, 38.20143 ] } },
{ "type": "Feature", "properties": { "latitude": 38.038911, "longitude": -84.504747, "name": "University of Kentucky", "city": "Lexington", "us_state": "KY", "url": "www.uky.edu", "population": "22244", "act_25": "22", "act_mid": "26", "act_75": "29", "cost": "26143" }, "geometry": { "type": "Point", "coordinates": [ -84.50475, 38.03891 ] } },
{ "type": "Feature", "properties": { "latitude": 38.216862, "longitude": -85.760412, "name": "University of Louisville", "city": "Louisville", "us_state": "KY", "url": "www.louisville.edu", "population": "15033", "act_25": "22", "act_mid": "26", "act_75": "29", "cost": "24768" }, "geometry": { "type": "Point", "coordinates": [ -85.76041, 38.21686 ] } },
{ "type": "Feature", "properties": { "latitude": 38.186768, "longitude": -83.434021, "name": "Morehead State University", "city": "Morehead", "us_state": "KY", "url": "www.moreheadstate.edu", "population": "6647", "act_25": "20", "act_mid": "23", "act_75": "26", "cost": "19454" }, "geometry": { "type": "Point", "coordinates": [ -83.43402, 38.18677 ] } },
{ "type": "Feature", "properties": { "latitude": 36.612419, "longitude": -88.323629, "name": "Murray State University", "city": "Murray", "us_state": "KY", "url": "www.murraystate.edu", "population": "7655", "act_25": "21", "act_mid": "24", "act_75": "27", "cost": "17948" }, "geometry": { "type": "Point", "coordinates": [ -88.32363, 36.61242 ] } },
{ "type": "Feature", "properties": { "latitude": 39.029714, "longitude": -84.463483, "name": "Northern Kentucky University", "city": "Highland Heights", "us_state": "KY", "url": "www.nku.edu", "population": "11033", "act_25": "20", "act_mid": "23", "act_75": "26", "cost": "16855" }, "geometry": { "type": "Point", "coordinates": [ -84.46348, 39.02971 ] } },
{ "type": "Feature", "properties": { "latitude": 36.985035, "longitude": -86.456828, "name": "Western Kentucky University", "city": "Bowling Green", "us_state": "KY", "url": "www.wku.edu", "population": "14956", "act_25": "19", "act_mid": "23", "act_75": "26", "cost": "18309" }, "geometry": { "type": "Point", "coordinates": [ -86.45683, 36.98504 ] } },
{ "type": "Feature", "properties": { "latitude": 32.523797, "longitude": -92.713245, "name": "Grambling State University", "city": "Grambling", "us_state": "LA", "url": "www.gram.edu", "population": "3882", "act_25": "16", "act_mid": "18", "act_75": "20", "cost": "24632" }, "geometry": { "type": "Point", "coordinates": [ -92.71325, 32.5238 ] } },
{ "type": "Feature", "properties": { "latitude": 31.178616, "longitude": -92.414409, "name": "Louisiana State University-Alexandria", "city": "Alexandria", "us_state": "LA", "url": "www.lsua.edu", "population": "2579", "act_25": "18", "act_mid": "21", "act_75": "23", "cost": "13520" }, "geometry": { "type": "Point", "coordinates": [ -92.41441, 31.17862 ] } },
{ "type": "Feature", "properties": { "latitude": 30.414986, "longitude": -91.178921, "name": "Louisiana State University and Agricultural & Mechanical College", "city": "Baton Rouge", "us_state": "LA", "url": "www.lsu.edu", "population": "24365", "act_25": "23", "act_mid": "26", "act_75": "28", "cost": "24441" }, "geometry": { "type": "Point", "coordinates": [ -91.17892, 30.41499 ] } },
{ "type": "Feature", "properties": { "latitude": 32.428465, "longitude": -93.70561, "name": "Louisiana State University-Shreveport", "city": "Shreveport", "us_state": "LA", "url": "www.lsus.edu\/", "population": "2199", "act_25": "20", "act_mid": "23", "act_75": "25", "cost": "17043" }, "geometry": { "type": "Point", "coordinates": [ -93.70561, 32.42847 ] } },
{ "type": "Feature", "properties": { "latitude": 32.528297, "longitude": -92.649963, "name": "Louisiana Tech University", "city": "Ruston", "us_state": "LA", "url": "www.latech.edu", "population": "8009", "act_25": "21", "act_mid": "24", "act_75": "27", "cost": "18954" }, "geometry": { "type": "Point", "coordinates": [ -92.64996, 32.5283 ] } },
{ "type": "Feature", "properties": { "latitude": 30.178187, "longitude": -93.217222, "name": "McNeese State University", "city": "Lake Charles", "us_state": "LA", "url": "www.mcneese.edu", "population": "6083", "act_25": "20", "act_mid": "22", "act_75": "24", "cost": "17940" }, "geometry": { "type": "Point", "coordinates": [ -93.21722, 30.17819 ] } },
{ "type": "Feature", "properties": { "latitude": 30.027704, "longitude": -90.067142, "name": "University of New Orleans", "city": "New Orleans", "us_state": "LA", "url": "www.uno.edu", "population": "5987", "act_25": "20", "act_mid": "22", "act_75": "24", "cost": "18164" }, "geometry": { "type": "Point", "coordinates": [ -90.06714, 30.0277 ] } },
{ "type": "Feature", "properties": { "latitude": 29.794486, "longitude": -90.801571, "name": "Nicholls State University", "city": "Thibodaux", "us_state": "LA", "url": "www.nicholls.edu", "population": "5278", "act_25": "20", "act_mid": "22", "act_75": "24", "cost": "18549" }, "geometry": { "type": "Point", "coordinates": [ -90.80157, 29.79449 ] } },
{ "type": "Feature", "properties": { "latitude": 32.527748, "longitude": -92.07374, "name": "University of Louisiana at Monroe", "city": "Monroe", "us_state": "LA", "url": "www.ulm.edu", "population": "6150", "act_25": "20", "act_mid": "23", "act_75": "25", "cost": "18491" }, "geometry": { "type": "Point", "coordinates": [ -92.07374, 32.52775 ] } },
{ "type": "Feature", "properties": { "latitude": 31.750666, "longitude": -93.097797, "name": "Northwestern State University of Louisiana", "city": "Natchitoches", "us_state": "LA", "url": "www.nsula.edu\/", "population": "7498", "act_25": "19", "act_mid": "22", "act_75": "24", "cost": "20263" }, "geometry": { "type": "Point", "coordinates": [ -93.0978, 31.75067 ] } },
{ "type": "Feature", "properties": { "latitude": 30.514652, "longitude": -90.468676, "name": "Southeastern Louisiana University", "city": "Hammond", "us_state": "LA", "url": "www.southeastern.edu", "population": "10839", "act_25": "19", "act_mid": "22", "act_75": "24", "cost": "18397" }, "geometry": { "type": "Point", "coordinates": [ -90.46868, 30.51465 ] } },
{ "type": "Feature", "properties": { "latitude": 30.524558, "longitude": -91.190105, "name": "Southern University and A & M College", "city": "Baton Rouge", "us_state": "LA", "url": "www.subr.edu", "population": "4858", "act_25": "20", "act_mid": "24", "act_75": "27", "cost": "19955" }, "geometry": { "type": "Point", "coordinates": [ -91.19011, 30.52456 ] } },
{ "type": "Feature", "properties": { "latitude": 30.026162, "longitude": -90.044912, "name": "Southern University at New Orleans", "city": "New Orleans", "us_state": "LA", "url": "www.suno.edu", "population": "1745", "act_25": "16", "act_mid": "18", "act_75": "19", "cost": "11515" }, "geometry": { "type": "Point", "coordinates": [ -90.04491, 30.02616 ] } },
{ "type": "Feature", "properties": { "latitude": 30.212191, "longitude": -92.020165, "name": "University of Louisiana at Lafayette", "city": "Lafayette", "us_state": "LA", "url": "www.louisiana.edu", "population": "15030", "act_25": "21", "act_mid": "24", "act_75": "26", "cost": "18910" }, "geometry": { "type": "Point", "coordinates": [ -92.02017, 30.21219 ] } },
{ "type": "Feature", "properties": { "latitude": 47.250389, "longitude": -68.589319, "name": "University of Maine at Fort Kent", "city": "Fort Kent", "us_state": "ME", "url": "www.umfk.maine.edu", "population": "1076", "act_25": "16", "act_mid": "19", "act_75": "22", "cost": "18248" }, "geometry": { "type": "Point", "coordinates": [ -68.58932, 47.25039 ] } },
{ "type": "Feature", "properties": { "latitude": 44.899257, "longitude": -68.669332, "name": "University of Maine", "city": "Orono", "us_state": "ME", "url": "www.umaine.edu\/", "population": "8757", "act_25": "21", "act_mid": "24", "act_75": "26", "cost": "22904" }, "geometry": { "type": "Point", "coordinates": [ -68.66933, 44.89926 ] } },
{ "type": "Feature", "properties": { "latitude": 44.389654, "longitude": -68.804347, "name": "Maine Maritime Academy", "city": "Castine", "us_state": "ME", "url": "mainemaritime.edu", "population": "1014", "act_25": "21", "act_mid": "23", "act_75": "25", "cost": "26445" }, "geometry": { "type": "Point", "coordinates": [ -68.80435, 44.38965 ] } },
{ "type": "Feature", "properties": { "latitude": 43.662863, "longitude": -70.274247, "name": "University of Southern Maine", "city": "Portland", "us_state": "ME", "url": "www.usm.maine.edu", "population": "5233", "act_25": "19", "act_mid": "22", "act_75": "25", "cost": "21508" }, "geometry": { "type": "Point", "coordinates": [ -70.27425, 43.66286 ] } },
{ "type": "Feature", "properties": { "latitude": 39.305834, "longitude": -76.616591, "name": "University of Baltimore", "city": "Baltimore", "us_state": "MD", "url": "www.ubalt.edu", "population": "3186", "act_25": "20", "act_mid": "21", "act_75": "21", "cost": "23143" }, "geometry": { "type": "Point", "coordinates": [ -76.61659, 39.30583 ] } },
{ "type": "Feature", "properties": { "latitude": 39.018185, "longitude": -76.759721, "name": "Bowie State University", "city": "Bowie", "us_state": "MD", "url": "www.bowiestate.edu", "population": "4632", "act_25": "15", "act_mid": "17", "act_75": "19", "cost": "20885" }, "geometry": { "type": "Point", "coordinates": [ -76.75972, 39.01819 ] } },
{ "type": "Feature", "properties": { "latitude": 39.311258, "longitude": -76.658687, "name": "Coppin State University", "city": "Baltimore", "us_state": "MD", "url": "www.coppin.edu", "population": "2477", "act_25": "15", "act_mid": "17", "act_75": "18", "cost": "17039" }, "geometry": { "type": "Point", "coordinates": [ -76.65869, 39.31126 ] } },
{ "type": "Feature", "properties": { "latitude": 39.650918, "longitude": -78.934293, "name": "Frostburg State University", "city": "Frostburg", "us_state": "MD", "url": "www.frostburg.edu", "population": "4779", "act_25": "18", "act_mid": "21", "act_75": "24", "cost": "20568" }, "geometry": { "type": "Point", "coordinates": [ -78.93429, 39.65092 ] } },
{ "type": "Feature", "properties": { "latitude": 39.256686, "longitude": -76.711607, "name": "University of Maryland-Baltimore County", "city": "Baltimore", "us_state": "MD", "url": "umbc.edu", "population": "11025", "act_25": "24", "act_mid": "27", "act_75": "29", "cost": "23818" }, "geometry": { "type": "Point", "coordinates": [ -76.71161, 39.25669 ] } },
{ "type": "Feature", "properties": { "latitude": 38.988178, "longitude": -76.944721, "name": "University of Maryland-College Park", "city": "College Park", "us_state": "MD", "url": "www.umd.edu", "population": "27864", "act_25": "29", "act_mid": "31", "act_75": "33", "cost": "24041" }, "geometry": { "type": "Point", "coordinates": [ -76.94472, 38.98818 ] } },
{ "type": "Feature", "properties": { "latitude": 38.207386, "longitude": -75.686852, "name": "University of Maryland Eastern Shore", "city": "Princess Anne", "us_state": "MD", "url": "www.umes.edu", "population": "3162", "act_25": "17", "act_mid": "19", "act_75": "20", "cost": "21739" }, "geometry": { "type": "Point", "coordinates": [ -75.68685, 38.20739 ] } },
{ "type": "Feature", "properties": { "latitude": 39.344161, "longitude": -76.585565, "name": "Morgan State University", "city": "Baltimore", "us_state": "MD", "url": "www.morgan.edu", "population": "6333", "act_25": "16", "act_mid": "18", "act_75": "20", "cost": "23279" }, "geometry": { "type": "Point", "coordinates": [ -76.58557, 39.34416 ] } },
{ "type": "Feature", "properties": { "latitude": 38.188075, "longitude": -76.431059, "name": "St Mary's College of Maryland", "city": "St. Mary's City", "us_state": "MD", "url": "www.smcm.edu", "population": "1578", "act_25": "23", "act_mid": "26", "act_75": "29", "cost": "28326" }, "geometry": { "type": "Point", "coordinates": [ -76.43106, 38.18807 ] } },
{ "type": "Feature", "properties": { "latitude": 39.393622, "longitude": -76.611164, "name": "Towson University", "city": "Towson", "us_state": "MD", "url": "www.towson.edu", "population": "18968", "act_25": "21", "act_mid": "23", "act_75": "25", "cost": "23278" }, "geometry": { "type": "Point", "coordinates": [ -76.61116, 39.39362 ] } },
{ "type": "Feature", "properties": { "latitude": 41.98749, "longitude": -70.974553, "name": "Bridgewater State University", "city": "Bridgewater", "us_state": "MA", "url": "www.bridgew.edu", "population": "9387", "act_25": "19", "act_mid": "22", "act_75": "24", "cost": "21344" }, "geometry": { "type": "Point", "coordinates": [ -70.97455, 41.98749 ] } },
{ "type": "Feature", "properties": { "latitude": 42.589345, "longitude": -71.789354, "name": "Fitchburg State University", "city": "Fitchburg", "us_state": "MA", "url": "www.fitchburgstate.edu", "population": "4073", "act_25": "18", "act_mid": "21", "act_75": "24", "cost": "19645" }, "geometry": { "type": "Point", "coordinates": [ -71.78935, 42.58935 ] } },
{ "type": "Feature", "properties": { "latitude": 42.297289, "longitude": -71.437175, "name": "Framingham State University", "city": "Framingham", "us_state": "MA", "url": "www.framingham.edu\/", "population": "4100", "act_25": "20", "act_mid": "23", "act_75": "25", "cost": "23139" }, "geometry": { "type": "Point", "coordinates": [ -71.43717, 42.29729 ] } },
{ "type": "Feature", "properties": { "latitude": 42.652864, "longitude": -71.326809, "name": "University of Massachusetts-Lowell", "city": "Lowell", "us_state": "MA", "url": "www.uml.edu", "population": "12909", "act_25": "24", "act_mid": "27", "act_75": "29", "cost": "26318" }, "geometry": { "type": "Point", "coordinates": [ -71.32681, 42.65286 ] } },
{ "type": "Feature", "properties": { "latitude": 42.385999, "longitude": -72.526728, "name": "University of Massachusetts-Amherst", "city": "Amherst", "us_state": "MA", "url": "www.umass.edu", "population": "22958", "act_25": "25", "act_mid": "28", "act_75": "30", "cost": "28000" }, "geometry": { "type": "Point", "coordinates": [ -72.52673, 42.386 ] } },
{ "type": "Feature", "properties": { "latitude": 42.312881, "longitude": -71.036865, "name": "University of Massachusetts-Boston", "city": "Boston", "us_state": "MA", "url": "www.umb.edu", "population": "12210", "act_25": "21", "act_mid": "24", "act_75": "26", "cost": "21884" }, "geometry": { "type": "Point", "coordinates": [ -71.03687, 42.31288 ] } },
{ "type": "Feature", "properties": { "latitude": 42.336862, "longitude": -71.099275, "name": "Massachusetts College of Art and Design", "city": "Boston", "us_state": "MA", "url": "www.massart.edu", "population": "1725", "act_25": "21", "act_mid": "24", "act_75": "26", "cost": "27638" }, "geometry": { "type": "Point", "coordinates": [ -71.09928, 42.33686 ] } },
{ "type": "Feature", "properties": { "latitude": 41.739072, "longitude": -70.624084, "name": "Massachusetts Maritime Academy", "city": "Buzzards Bay", "us_state": "MA", "url": "www.maritime.edu", "population": "1641", "act_25": "20", "act_mid": "23", "act_75": "26", "cost": "23454" }, "geometry": { "type": "Point", "coordinates": [ -70.62408, 41.73907 ] } },
{ "type": "Feature", "properties": { "latitude": 42.691361, "longitude": -73.102817, "name": "Massachusetts College of Liberal Arts", "city": "North Adams", "us_state": "MA", "url": "www.mcla.edu", "population": "1408", "act_25": "20", "act_mid": "23", "act_75": "25", "cost": "21680" }, "geometry": { "type": "Point", "coordinates": [ -73.10282, 42.69136 ] } },
{ "type": "Feature", "properties": { "latitude": 42.503575, "longitude": -70.890234, "name": "Salem State University", "city": "Salem", "us_state": "MA", "url": "www.salemstate.edu", "population": "7016", "act_25": "19", "act_mid": "22", "act_75": "25", "cost": "22626" }, "geometry": { "type": "Point", "coordinates": [ -70.89023, 42.50357 ] } },
{ "type": "Feature", "properties": { "latitude": 41.62869, "longitude": -71.004552, "name": "University of Massachusetts-Dartmouth", "city": "North Dartmouth", "us_state": "MA", "url": "www.umassd.edu", "population": "6758", "act_25": "20", "act_mid": "23", "act_75": "26", "cost": "25410" }, "geometry": { "type": "Point", "coordinates": [ -71.00455, 41.62869 ] } },
{ "type": "Feature", "properties": { "latitude": 42.131589, "longitude": -72.795673, "name": "Westfield State University", "city": "Westfield", "us_state": "MA", "url": "www.westfield.ma.edu", "population": "5495", "act_25": "19", "act_mid": "22", "act_75": "24", "cost": "21411" }, "geometry": { "type": "Point", "coordinates": [ -72.79567, 42.13159 ] } },
{ "type": "Feature", "properties": { "latitude": 42.267534, "longitude": -71.844019, "name": "Worcester State University", "city": "Worcester", "us_state": "MA", "url": "www.worcester.edu", "population": "4891", "act_25": "21", "act_mid": "24", "act_75": "26", "cost": "20892" }, "geometry": { "type": "Point", "coordinates": [ -71.84402, 42.26753 ] } },
{ "type": "Feature", "properties": { "latitude": 43.591203, "longitude": -84.77525, "name": "Central Michigan University", "city": "Mount Pleasant", "us_state": "MI", "url": "https:\/\/www.cmich.edu", "population": "19551", "act_25": "20", "act_mid": "23", "act_75": "25", "cost": "22778" }, "geometry": { "type": "Point", "coordinates": [ -84.77525, 43.5912 ] } },
{ "type": "Feature", "properties": { "latitude": 42.24694, "longitude": -83.622501, "name": "Eastern Michigan University", "city": "Ypsilanti", "us_state": "MI", "url": "www.emich.edu", "population": "17025", "act_25": "19", "act_mid": "22", "act_75": "25", "cost": "21828" }, "geometry": { "type": "Point", "coordinates": [ -83.6225, 42.24694 ] } },
{ "type": "Feature", "properties": { "latitude": 43.687724, "longitude": -85.481925, "name": "Ferris State University", "city": "Big Rapids", "us_state": "MI", "url": "www.ferris.edu\/", "population": "12006", "act_25": "19", "act_mid": "22", "act_75": "25", "cost": "21635" }, "geometry": { "type": "Point", "coordinates": [ -85.48193, 43.68772 ] } },
{ "type": "Feature", "properties": { "latitude": 42.963001, "longitude": -85.889826, "name": "Grand Valley State University", "city": "Allendale", "us_state": "MI", "url": "www.gvsu.edu", "population": "22081", "act_25": "21", "act_mid": "24", "act_75": "26", "cost": "21534" }, "geometry": { "type": "Point", "coordinates": [ -85.88983, 42.963 ] } },
{ "type": "Feature", "properties": { "latitude": 46.492849, "longitude": -84.365573, "name": "Lake Superior State University", "city": "Sault Ste Marie", "us_state": "MI", "url": "www.lssu.edu", "population": "2063", "act_25": "20", "act_mid": "23", "act_75": "25", "cost": "20709" }, "geometry": { "type": "Point", "coordinates": [ -84.36557, 46.49285 ] } },
{ "type": "Feature", "properties": { "latitude": 42.275921, "longitude": -83.742769, "name": "University of Michigan-Ann Arbor", "city": "Ann Arbor", "us_state": "MI", "url": "www.umich.edu", "population": "28761", "act_25": "29", "act_mid": "31", "act_75": "33", "cost": "27725" }, "geometry": { "type": "Point", "coordinates": [ -83.74277, 42.27592 ] } },
{ "type": "Feature", "properties": { "latitude": 42.73212, "longitude": -84.476111, "name": "Michigan State University", "city": "East Lansing", "us_state": "MI", "url": "https:\/\/www.msu.edu", "population": "38851", "act_25": "24", "act_mid": "27", "act_75": "29", "cost": "25809" }, "geometry": { "type": "Point", "coordinates": [ -84.47611, 42.73212 ] } },
{ "type": "Feature", "properties": { "latitude": 47.11866, "longitude": -88.548092, "name": "Michigan Technological University", "city": "Houghton", "us_state": "MI", "url": "www.mtu.edu", "population": "5739", "act_25": "25", "act_mid": "28", "act_75": "30", "cost": "26587" }, "geometry": { "type": "Point", "coordinates": [ -88.54809, 47.11866 ] } },
{ "type": "Feature", "properties": { "latitude": 42.317287, "longitude": -83.231417, "name": "University of Michigan-Dearborn", "city": "Dearborn", "us_state": "MI", "url": "umdearborn.edu\/", "population": "6886", "act_25": "22", "act_mid": "25", "act_75": "27", "cost": "18832" }, "geometry": { "type": "Point", "coordinates": [ -83.23142, 42.31729 ] } },
{ "type": "Feature", "properties": { "latitude": 43.01875, "longitude": -83.690276, "name": "University of Michigan-Flint", "city": "Flint", "us_state": "MI", "url": "www.umflint.edu", "population": "5827", "act_25": "19", "act_mid": "23", "act_75": "26", "cost": "19729" }, "geometry": { "type": "Point", "coordinates": [ -83.69028, 43.01875 ] } },
{ "type": "Feature", "properties": { "latitude": 46.559751, "longitude": -87.406568, "name": "Northern Michigan University", "city": "Marquette", "us_state": "MI", "url": "www.nmu.edu", "population": "6983", "act_25": "19", "act_mid": "22", "act_75": "25", "cost": "19788" }, "geometry": { "type": "Point", "coordinates": [ -87.40657, 46.55975 ] } },
{ "type": "Feature", "properties": { "latitude": 42.674573, "longitude": -83.216418, "name": "Oakland University", "city": "Rochester Hills", "us_state": "MI", "url": "www.oakland.edu", "population": "16233", "act_25": "20", "act_mid": "24", "act_75": "27", "cost": "20502" }, "geometry": { "type": "Point", "coordinates": [ -83.21642, 42.67457 ] } },
{ "type": "Feature", "properties": { "latitude": 43.51176, "longitude": -83.964273, "name": "Saginaw Valley State University", "city": "University Center", "us_state": "MI", "url": "www.svsu.edu", "population": "7913", "act_25": "20", "act_mid": "23", "act_75": "25", "cost": "19377" }, "geometry": { "type": "Point", "coordinates": [ -83.96427, 43.51176 ] } },
{ "type": "Feature", "properties": { "latitude": 42.358994, "longitude": -83.068998, "name": "Wayne State University", "city": "Detroit", "us_state": "MI", "url": "www.wayne.edu", "population": "16671", "act_25": "20", "act_mid": "24", "act_75": "27", "cost": "22276" }, "geometry": { "type": "Point", "coordinates": [ -83.069, 42.35899 ] } },
{ "type": "Feature", "properties": { "latitude": 42.282194, "longitude": -85.613759, "name": "Western Michigan University", "city": "Kalamazoo", "us_state": "MI", "url": "https:\/\/wmich.edu\/", "population": "17984", "act_25": "19", "act_mid": "22", "act_75": "25", "cost": "23598" }, "geometry": { "type": "Point", "coordinates": [ -85.61376, 42.28219 ] } },
{ "type": "Feature", "properties": { "latitude": 47.482341, "longitude": -94.874119, "name": "Bemidji State University", "city": "Bemidji", "us_state": "MN", "url": "www.bemidjistate.edu", "population": "4413", "act_25": "20", "act_mid": "22", "act_75": "24", "cost": "19540" }, "geometry": { "type": "Point", "coordinates": [ -94.87412, 47.48234 ] } },
{ "type": "Feature", "properties": { "latitude": 44.146712, "longitude": -93.99945, "name": "Minnesota State University-Mankato", "city": "Mankato", "us_state": "MN", "url": "www.mnsu.edu", "population": "12154", "act_25": "20", "act_mid": "22", "act_75": "24", "cost": "18844" }, "geometry": { "type": "Point", "coordinates": [ -93.99945, 44.14671 ] } },
{ "type": "Feature", "properties": { "latitude": 44.972851, "longitude": -93.235464, "name": "University of Minnesota-Twin Cities", "city": "Minneapolis", "us_state": "MN", "url": "https:\/\/twin-cities.umn.edu", "population": "30974", "act_25": "26", "act_mid": "29", "act_75": "31", "cost": "25370" }, "geometry": { "type": "Point", "coordinates": [ -93.23546, 44.97285 ] } },
{ "type": "Feature", "properties": { "latitude": 47.802536, "longitude": -96.606188, "name": "University of Minnesota-Crookston", "city": "Crookston", "us_state": "MN", "url": "https:\/\/www.crk.umn.edu\/", "population": "1821", "act_25": "20", "act_mid": "22", "act_75": "24", "cost": "22641" }, "geometry": { "type": "Point", "coordinates": [ -96.60619, 47.80254 ] } },
{ "type": "Feature", "properties": { "latitude": 46.817126, "longitude": -92.084385, "name": "University of Minnesota-Duluth", "city": "Duluth", "us_state": "MN", "url": "www.d.umn.edu\/", "population": "9051", "act_25": "22", "act_mid": "24", "act_75": "26", "cost": "23611" }, "geometry": { "type": "Point", "coordinates": [ -92.08438, 46.81713 ] } },
{ "type": "Feature", "properties": { "latitude": 45.589829, "longitude": -95.901756, "name": "University of Minnesota-Morris", "city": "Morris", "us_state": "MN", "url": "www4.morris.umn.edu\/", "population": "1680", "act_25": "22", "act_mid": "25", "act_75": "28", "cost": "23319" }, "geometry": { "type": "Point", "coordinates": [ -95.90176, 45.58983 ] } },
{ "type": "Feature", "properties": { "latitude": 46.867153, "longitude": -96.759532, "name": "Minnesota State University Moorhead", "city": "Moorhead", "us_state": "MN", "url": "www.mnstate.edu\/", "population": "4968", "act_25": "20", "act_mid": "23", "act_75": "25", "cost": "19628" }, "geometry": { "type": "Point", "coordinates": [ -96.75953, 46.86715 ] } },
{ "type": "Feature", "properties": { "latitude": 45.553227, "longitude": -94.152657, "name": "Saint Cloud State University", "city": "Saint Cloud", "us_state": "MN", "url": "www.stcloudstate.edu", "population": "10283", "act_25": "18", "act_mid": "21", "act_75": "24", "cost": "18750" }, "geometry": { "type": "Point", "coordinates": [ -94.15266, 45.55323 ] } },
{ "type": "Feature", "properties": { "latitude": 44.45373, "longitude": -95.759548, "name": "Southwest Minnesota State University", "city": "Marshall", "us_state": "MN", "url": "www.smsu.edu", "population": "2321", "act_25": "18", "act_mid": "21", "act_75": "23", "cost": "19703" }, "geometry": { "type": "Point", "coordinates": [ -95.75955, 44.45373 ] } },
{ "type": "Feature", "properties": { "latitude": 44.046159, "longitude": -91.643723, "name": "Winona State University", "city": "Winona", "us_state": "MN", "url": "www.winona.edu", "population": "7485", "act_25": "20", "act_mid": "23", "act_75": "25", "cost": "21334" }, "geometry": { "type": "Point", "coordinates": [ -91.64372, 44.04616 ] } },
{ "type": "Feature", "properties": { "latitude": 31.877216, "longitude": -91.142854, "name": "Alcorn State University", "city": "Alcorn State", "us_state": "MS", "url": "www.alcorn.edu", "population": "2812", "act_25": "16", "act_mid": "19", "act_75": "21", "cost": "21664" }, "geometry": { "type": "Point", "coordinates": [ -91.14285, 31.87722 ] } },
{ "type": "Feature", "properties": { "latitude": 33.744745, "longitude": -90.735365, "name": "Delta State University", "city": "Cleveland", "us_state": "MS", "url": "www.deltastate.edu", "population": "2429", "act_25": "19", "act_mid": "22", "act_75": "25", "cost": "18317" }, "geometry": { "type": "Point", "coordinates": [ -90.73537, 33.74475 ] } },
{ "type": "Feature", "properties": { "latitude": 32.296105, "longitude": -90.207405, "name": "Jackson State University", "city": "Jackson", "us_state": "MS", "url": "www.jsums.edu", "population": "7457", "act_25": "17", "act_mid": "19", "act_75": "21", "cost": "21670" }, "geometry": { "type": "Point", "coordinates": [ -90.2074, 32.2961 ] } },
{ "type": "Feature", "properties": { "latitude": 34.365529, "longitude": -89.537434, "name": "University of Mississippi", "city": "University", "us_state": "MS", "url": "www.olemiss.edu", "population": "18975", "act_25": "22", "act_mid": "26", "act_75": "29", "cost": "23372" }, "geometry": { "type": "Point", "coordinates": [ -89.53743, 34.36553 ] } },
{ "type": "Feature", "properties": { "latitude": 33.493305, "longitude": -88.418601, "name": "Mississippi University for Women", "city": "Columbus", "us_state": "MS", "url": "www.muw.edu", "population": "2308", "act_25": "18", "act_mid": "21", "act_75": "24", "cost": "17193" }, "geometry": { "type": "Point", "coordinates": [ -88.4186, 33.4933 ] } },
{ "type": "Feature", "properties": { "latitude": 33.514142, "longitude": -90.341274, "name": "Mississippi Valley State University", "city": "Itta Bena", "us_state": "MS", "url": "www.mvsu.edu", "population": "1792", "act_25": "15", "act_mid": "17", "act_75": "19", "cost": "20347" }, "geometry": { "type": "Point", "coordinates": [ -90.34127, 33.51414 ] } },
{ "type": "Feature", "properties": { "latitude": 33.454852, "longitude": -88.790139, "name": "Mississippi State University", "city": "Mississippi State", "us_state": "MS", "url": "www.msstate.edu", "population": "17371", "act_25": "21", "act_mid": "25", "act_75": "28", "cost": "22818" }, "geometry": { "type": "Point", "coordinates": [ -88.79014, 33.45485 ] } },
{ "type": "Feature", "properties": { "latitude": 31.32661, "longitude": -89.331236, "name": "University of Southern Mississippi", "city": "Hattiesburg", "us_state": "MS", "url": "www.usm.edu", "population": "11658", "act_25": "20", "act_mid": "23", "act_75": "26", "cost": "20469" }, "geometry": { "type": "Point", "coordinates": [ -89.33124, 31.32661 ] } },
{ "type": "Feature", "properties": { "latitude": 38.759111, "longitude": -93.737428, "name": "University of Central Missouri", "city": "Warrensburg", "us_state": "MO", "url": "www.ucmo.edu", "population": "8756", "act_25": "20", "act_mid": "23", "act_75": "25", "cost": "18808" }, "geometry": { "type": "Point", "coordinates": [ -93.73743, 38.75911 ] } },
{ "type": "Feature", "properties": { "latitude": 37.095155, "longitude": -94.461689, "name": "Missouri Southern State University", "city": "Joplin", "us_state": "MO", "url": "www.mssu.edu", "population": "5477", "act_25": "18", "act_mid": "21", "act_75": "24", "cost": "14419" }, "geometry": { "type": "Point", "coordinates": [ -94.46169, 37.09515 ] } },
{ "type": "Feature", "properties": { "latitude": 38.94531, "longitude": -92.328843, "name": "University of Missouri-Columbia", "city": "Columbia", "us_state": "MO", "url": "missouri.edu\/", "population": "25544", "act_25": "23", "act_mid": "26", "act_75": "29", "cost": "23962" }, "geometry": { "type": "Point", "coordinates": [ -92.32884, 38.94531 ] } },
{ "type": "Feature", "properties": { "latitude": 39.034179, "longitude": -94.582141, "name": "University of Missouri-Kansas City", "city": "Kansas City", "us_state": "MO", "url": "www.umkc.edu\/", "population": "7904", "act_25": "21", "act_mid": "25", "act_75": "28", "cost": "21575" }, "geometry": { "type": "Point", "coordinates": [ -94.58214, 39.03418 ] } },
{ "type": "Feature", "properties": { "latitude": 37.953426, "longitude": -91.775583, "name": "Missouri University of Science and Technology", "city": "Rolla", "us_state": "MO", "url": "www.mst.edu\/", "population": "6857", "act_25": "25", "act_mid": "28", "act_75": "31", "cost": "21698" }, "geometry": { "type": "Point", "coordinates": [ -91.77558, 37.95343 ] } },
{ "type": "Feature", "properties": { "latitude": 38.710312, "longitude": -90.311091, "name": "University of Missouri-St Louis", "city": "Saint Louis", "us_state": "MO", "url": "www.umsl.edu\/", "population": "7736", "act_25": "21", "act_mid": "24", "act_75": "27", "cost": "22105" }, "geometry": { "type": "Point", "coordinates": [ -90.31109, 38.71031 ] } },
{ "type": "Feature", "properties": { "latitude": 40.188267, "longitude": -92.581658, "name": "Truman State University", "city": "Kirksville", "us_state": "MO", "url": "www.truman.edu", "population": "5302", "act_25": "24", "act_mid": "27", "act_75": "30", "cost": "20555" }, "geometry": { "type": "Point", "coordinates": [ -92.58166, 40.18827 ] } },
{ "type": "Feature", "properties": { "latitude": 40.351692, "longitude": -94.883339, "name": "Northwest Missouri State University", "city": "Maryville", "us_state": "MO", "url": "www.nwmissouri.edu", "population": "5240", "act_25": "20", "act_mid": "23", "act_75": "25", "cost": "18226" }, "geometry": { "type": "Point", "coordinates": [ -94.88334, 40.35169 ] } },
{ "type": "Feature", "properties": { "latitude": 37.311107, "longitude": -89.531187, "name": "Southeast Missouri State University", "city": "Cape Girardeau", "us_state": "MO", "url": "www.semo.edu", "population": "9028", "act_25": "20", "act_mid": "23", "act_75": "25", "cost": "18248" }, "geometry": { "type": "Point", "coordinates": [ -89.53119, 37.31111 ] } },
{ "type": "Feature", "properties": { "latitude": 37.199258, "longitude": -93.281281, "name": "Missouri State University-Springfield", "city": "Springfield", "us_state": "MO", "url": "www.missouristate.edu", "population": "17277", "act_25": "21", "act_mid": "24", "act_75": "26", "cost": "20296" }, "geometry": { "type": "Point", "coordinates": [ -93.28128, 37.19926 ] } },
{ "type": "Feature", "properties": { "latitude": 46.012868, "longitude": -112.559511, "name": "Montana Tech of the University of Montana", "city": "Butte", "us_state": "MT", "url": "www.mtech.edu", "population": "1804", "act_25": "22", "act_mid": "24", "act_75": "26", "cost": "17740" }, "geometry": { "type": "Point", "coordinates": [ -112.55951, 46.01287 ] } },
{ "type": "Feature", "properties": { "latitude": 45.666726, "longitude": -111.048812, "name": "Montana State University", "city": "Bozeman", "us_state": "MT", "url": "www.montana.edu\/", "population": "14149", "act_25": "21", "act_mid": "25", "act_75": "28", "cost": "19441" }, "geometry": { "type": "Point", "coordinates": [ -111.04881, 45.66673 ] } },
{ "type": "Feature", "properties": { "latitude": 46.859312, "longitude": -113.982912, "name": "The University of Montana", "city": "Missoula", "us_state": "MT", "url": "www.umt.edu", "population": "9356", "act_25": "20", "act_mid": "23", "act_75": "26", "cost": "17883" }, "geometry": { "type": "Point", "coordinates": [ -113.98291, 46.85931 ] } },
{ "type": "Feature", "properties": { "latitude": 48.54149, "longitude": -109.687806, "name": "Montana State University-Northern", "city": "Havre", "us_state": "MT", "url": "www.msun.edu", "population": "1139", "act_25": "16", "act_mid": "19", "act_75": "22", "cost": "15669" }, "geometry": { "type": "Point", "coordinates": [ -109.68781, 48.54149 ] } },
{ "type": "Feature", "properties": { "latitude": 40.701287, "longitude": -99.09807, "name": "University of Nebraska at Kearney", "city": "Kearney", "us_state": "NE", "url": "www.unk.edu", "population": "4672", "act_25": "19", "act_mid": "22", "act_75": "25", "cost": "20967" }, "geometry": { "type": "Point", "coordinates": [ -99.09807, 40.70129 ] } },
{ "type": "Feature", "properties": { "latitude": 41.258769, "longitude": -96.008516, "name": "University of Nebraska at Omaha", "city": "Omaha", "us_state": "NE", "url": "https:\/\/www.unomaha.edu", "population": "12333", "act_25": "19", "act_mid": "23", "act_75": "26", "cost": "17712" }, "geometry": { "type": "Point", "coordinates": [ -96.00852, 41.25877 ] } },
{ "type": "Feature", "properties": { "latitude": 40.817598, "longitude": -96.700508, "name": "University of Nebraska-Lincoln", "city": "Lincoln", "us_state": "NE", "url": "www.unl.edu\/", "population": "20833", "act_25": "22", "act_mid": "25", "act_75": "28", "cost": "22535" }, "geometry": { "type": "Point", "coordinates": [ -96.70051, 40.8176 ] } },
{ "type": "Feature", "properties": { "latitude": 36.106047, "longitude": -115.138462, "name": "University of Nevada-Las Vegas", "city": "Las Vegas", "us_state": "NV", "url": "www.unlv.edu\/", "population": "24197", "act_25": "19", "act_mid": "22", "act_75": "24", "cost": "17131" }, "geometry": { "type": "Point", "coordinates": [ -115.13846, 36.10605 ] } },
{ "type": "Feature", "properties": { "latitude": 39.543642, "longitude": -119.815377, "name": "University of Nevada-Reno", "city": "Reno", "us_state": "NV", "url": "www.unr.edu\/", "population": "17786", "act_25": "21", "act_mid": "24", "act_75": "26", "cost": "20702" }, "geometry": { "type": "Point", "coordinates": [ -119.81538, 39.54364 ] } },
{ "type": "Feature", "properties": { "latitude": 43.135934, "longitude": -70.932465, "name": "University of New Hampshire-Main Campus", "city": "Durham", "us_state": "NH", "url": "www.unh.edu", "population": "12653", "act_25": "22", "act_mid": "25", "act_75": "27", "cost": "31168" }, "geometry": { "type": "Point", "coordinates": [ -70.93246, 43.13593 ] } },
{ "type": "Feature", "properties": { "latitude": 42.926452, "longitude": -72.279276, "name": "Keene State College", "city": "Keene", "us_state": "NH", "url": "www.keene.edu", "population": "4068", "act_25": "18", "act_mid": "21", "act_75": "24", "cost": "25060" }, "geometry": { "type": "Point", "coordinates": [ -72.27928, 42.92645 ] } },
{ "type": "Feature", "properties": { "latitude": 42.987209, "longitude": -71.468755, "name": "University of New Hampshire at Manchester", "city": "Manchester", "us_state": "NH", "url": "manchester.unh.edu", "population": "712", "act_25": "22", "act_mid": "24", "act_75": "26", "cost": "19931" }, "geometry": { "type": "Point", "coordinates": [ -71.46876, 42.98721 ] } },
{ "type": "Feature", "properties": { "latitude": 39.709108, "longitude": -75.119119, "name": "Rowan University", "city": "Glassboro", "us_state": "NJ", "url": "www.rowan.edu", "population": "14068", "act_25": "22", "act_mid": "25", "act_75": "27", "cost": "27553" }, "geometry": { "type": "Point", "coordinates": [ -75.11912, 39.70911 ] } },
{ "type": "Feature", "properties": { "latitude": 40.677981, "longitude": -74.233503, "name": "Kean University", "city": "Union", "us_state": "NJ", "url": "www.kean.edu", "population": "11656", "act_25": "17", "act_mid": "20", "act_75": "22", "cost": "24367" }, "geometry": { "type": "Point", "coordinates": [ -74.2335, 40.67798 ] } },
{ "type": "Feature", "properties": { "latitude": 40.741997, "longitude": -74.177113, "name": "New Jersey Institute of Technology", "city": "Newark", "us_state": "NJ", "url": "www.njit.edu\/", "population": "7336", "act_25": "23", "act_mid": "26", "act_75": "29", "cost": "29143" }, "geometry": { "type": "Point", "coordinates": [ -74.17711, 40.742 ] } },
{ "type": "Feature", "properties": { "latitude": 41.080942, "longitude": -74.174086, "name": "Ramapo College of New Jersey", "city": "Mahwah", "us_state": "NJ", "url": "www.ramapo.edu", "population": "5445", "act_25": "21", "act_mid": "24", "act_75": "26", "cost": "27821" }, "geometry": { "type": "Point", "coordinates": [ -74.17409, 41.08094 ] } },
{ "type": "Feature", "properties": { "latitude": 39.492036, "longitude": -74.531087, "name": "Stockton University", "city": "Galloway", "us_state": "NJ", "url": "www.stockton.edu", "population": "7825", "act_25": "19", "act_mid": "22", "act_75": "24", "cost": "27490" }, "geometry": { "type": "Point", "coordinates": [ -74.53109, 39.49204 ] } },
{ "type": "Feature", "properties": { "latitude": 40.268651, "longitude": -74.778791, "name": "The College of New Jersey", "city": "Ewing", "us_state": "NJ", "url": "www.tcnj.edu", "population": "6666", "act_25": "25", "act_mid": "28", "act_75": "30", "cost": "32421" }, "geometry": { "type": "Point", "coordinates": [ -74.77879, 40.26865 ] } },
{ "type": "Feature", "properties": { "latitude": 34.175592, "longitude": -103.34819, "name": "Eastern New Mexico University-Main Campus", "city": "Portales", "us_state": "NM", "url": "www.enmu.edu", "population": "3483", "act_25": "17", "act_mid": "20", "act_75": "23", "cost": "16948" }, "geometry": { "type": "Point", "coordinates": [ -103.34819, 34.17559 ] } },
{ "type": "Feature", "properties": { "latitude": 33.409617, "longitude": -104.524448, "name": "New Mexico Military Institute", "city": "Roswell", "us_state": "NM", "url": "www.nmmi.edu", "population": "422", "act_25": "16", "act_mid": "20", "act_75": "23", "cost": "12947" }, "geometry": { "type": "Point", "coordinates": [ -104.52445, 33.40962 ] } },
{ "type": "Feature", "properties": { "latitude": 34.067041, "longitude": -106.905211, "name": "New Mexico Institute of Mining and Technology", "city": "Socorro", "us_state": "NM", "url": "www.nmt.edu", "population": "1460", "act_25": "23", "act_mid": "26", "act_75": "29", "cost": "19956" }, "geometry": { "type": "Point", "coordinates": [ -106.90521, 34.06704 ] } },
{ "type": "Feature", "properties": { "latitude": 35.083868, "longitude": -106.620155, "name": "University of New Mexico-Main Campus", "city": "Albuquerque", "us_state": "NM", "url": "www.unm.edu", "population": "19646", "act_25": "19", "act_mid": "22", "act_75": "25", "cost": "17443" }, "geometry": { "type": "Point", "coordinates": [ -106.62015, 35.08387 ] } },
{ "type": "Feature", "properties": { "latitude": 32.281568, "longitude": -106.752069, "name": "New Mexico State University-Main Campus", "city": "Las Cruces", "us_state": "NM", "url": "www.nmsu.edu\/", "population": "11421", "act_25": "18", "act_mid": "21", "act_75": "24", "cost": "17053" }, "geometry": { "type": "Point", "coordinates": [ -106.75207, 32.28157 ] } },
{ "type": "Feature", "properties": { "latitude": 42.255262, "longitude": -77.794632, "name": "SUNY College of Technology at Alfred", "city": "Alfred", "us_state": "NY", "url": "www.alfredstate.edu", "population": "3712", "act_25": "19", "act_mid": "22", "act_75": "24", "cost": "22556" }, "geometry": { "type": "Point", "coordinates": [ -77.79463, 42.25526 ] } },
{ "type": "Feature", "properties": { "latitude": 44.604096, "longitude": -75.182906, "name": "SUNY College of Technology at Canton", "city": "Canton", "us_state": "NY", "url": "www.canton.edu", "population": "3094", "act_25": "17", "act_mid": "20", "act_75": "22", "cost": "20980" }, "geometry": { "type": "Point", "coordinates": [ -75.18291, 44.6041 ] } },
{ "type": "Feature", "properties": { "latitude": 42.672534, "longitude": -74.498258, "name": "SUNY College of Agriculture and Technology at Cobleskill", "city": "Cobleskill", "us_state": "NY", "url": "www.cobleskill.edu\/", "population": "2271", "act_25": "20", "act_mid": "22", "act_75": "24", "cost": "22766" }, "geometry": { "type": "Point", "coordinates": [ -74.49826, 42.67253 ] } },
{ "type": "Feature", "properties": { "latitude": 40.754224, "longitude": -73.42832, "name": "Farmingdale State College", "city": "Farmingdale", "us_state": "NY", "url": "www.farmingdale.edu\/", "population": "8591", "act_25": "19", "act_mid": "21", "act_75": "23", "cost": "15256" }, "geometry": { "type": "Point", "coordinates": [ -73.42832, 40.75422 ] } },
{ "type": "Feature", "properties": { "latitude": 42.893962, "longitude": -75.640583, "name": "Morrisville State College", "city": "Morrisville", "us_state": "NY", "url": "www.morrisville.edu", "population": "2765", "act_25": "17", "act_mid": "20", "act_75": "22", "cost": "24159" }, "geometry": { "type": "Point", "coordinates": [ -75.64058, 42.89396 ] } },
{ "type": "Feature", "properties": { "latitude": 42.685489, "longitude": -73.824662, "name": "SUNY at Albany", "city": "Albany", "us_state": "NY", "url": "www.albany.edu", "population": "12955", "act_25": "22", "act_mid": "24", "act_75": "26", "cost": "23777" }, "geometry": { "type": "Point", "coordinates": [ -73.82466, 42.68549 ] } },
{ "type": "Feature", "properties": { "latitude": 42.087868, "longitude": -75.966889, "name": "Binghamton University", "city": "Vestal", "us_state": "NY", "url": "www.binghamton.edu", "population": "13578", "act_25": "28", "act_mid": "30", "act_75": "31", "cost": "24093" }, "geometry": { "type": "Point", "coordinates": [ -75.96689, 42.08787 ] } },
{ "type": "Feature", "properties": { "latitude": 43.000942, "longitude": -78.789458, "name": "University at Buffalo", "city": "Buffalo", "us_state": "NY", "url": "www.buffalo.edu", "population": "20102", "act_25": "24", "act_mid": "27", "act_75": "29", "cost": "24006" }, "geometry": { "type": "Point", "coordinates": [ -78.78946, 43.00094 ] } },
{ "type": "Feature", "properties": { "latitude": 40.91476, "longitude": -73.12046, "name": "Stony Brook University", "city": "Stony Brook", "us_state": "NY", "url": "www.stonybrook.edu", "population": "16863", "act_25": "26", "act_mid": "29", "act_75": "31", "cost": "22988" }, "geometry": { "type": "Point", "coordinates": [ -73.12046, 40.91476 ] } },
{ "type": "Feature", "properties": { "latitude": 43.034765, "longitude": -76.138724, "name": "SUNY College of Environmental Science and Forestry", "city": "Syracuse", "us_state": "NY", "url": "www.esf.edu", "population": "1746", "act_25": "23", "act_mid": "25", "act_75": "27", "cost": "24430" }, "geometry": { "type": "Point", "coordinates": [ -76.13872, 43.03477 ] } },
{ "type": "Feature", "properties": { "latitude": 43.137701, "longitude": -75.229841, "name": "SUNY Polytechnic Institute", "city": "Utica", "us_state": "NY", "url": "www.sunypoly.edu", "population": "1891", "act_25": "24", "act_mid": "27", "act_75": "29", "cost": "21836" }, "geometry": { "type": "Point", "coordinates": [ -75.22984, 43.1377 ] } },
{ "type": "Feature", "properties": { "latitude": 43.211926, "longitude": -77.947188, "name": "SUNY College at Brockport", "city": "Brockport", "us_state": "NY", "url": "https:\/\/www.brockport.edu", "population": "7066", "act_25": "20", "act_mid": "23", "act_75": "25", "cost": "21217" }, "geometry": { "type": "Point", "coordinates": [ -77.94719, 43.21193 ] } },
{ "type": "Feature", "properties": { "latitude": 42.933832, "longitude": -78.882125, "name": "SUNY Buffalo State", "city": "Buffalo", "us_state": "NY", "url": "suny.buffalostate.edu\/", "population": "8360", "act_25": "17", "act_mid": "20", "act_75": "22", "cost": "20172" }, "geometry": { "type": "Point", "coordinates": [ -78.88213, 42.93383 ] } },
{ "type": "Feature", "properties": { "latitude": 42.598022, "longitude": -76.188655, "name": "SUNY Cortland", "city": "Cortland", "us_state": "NY", "url": "www2.cortland.edu", "population": "6292", "act_25": "22", "act_mid": "24", "act_75": "25", "cost": "23798" }, "geometry": { "type": "Point", "coordinates": [ -76.18865, 42.59802 ] } },
{ "type": "Feature", "properties": { "latitude": 42.452236, "longitude": -79.337375, "name": "SUNY at Fredonia", "city": "Fredonia", "us_state": "NY", "url": "www.fredonia.edu", "population": "4352", "act_25": "22", "act_mid": "25", "act_75": "27", "cost": "22935" }, "geometry": { "type": "Point", "coordinates": [ -79.33737, 42.45224 ] } },
{ "type": "Feature", "properties": { "latitude": 42.796645, "longitude": -77.821894, "name": "SUNY College at Geneseo", "city": "Geneseo", "us_state": "NY", "url": "www.geneseo.edu\/", "population": "5480", "act_25": "25", "act_mid": "27", "act_75": "29", "cost": "23393" }, "geometry": { "type": "Point", "coordinates": [ -77.82189, 42.79664 ] } },
{ "type": "Feature", "properties": { "latitude": 41.740936, "longitude": -74.082188, "name": "State University of New York at New Paltz", "city": "New Paltz", "us_state": "NY", "url": "www.newpaltz.edu", "population": "6582", "act_25": "23", "act_mid": "25", "act_75": "27", "cost": "22520" }, "geometry": { "type": "Point", "coordinates": [ -74.08219, 41.74094 ] } },
{ "type": "Feature", "properties": { "latitude": 42.468861, "longitude": -75.063632, "name": "SUNY Oneonta", "city": "Oneonta", "us_state": "NY", "url": "https:\/\/suny.oneonta.edu", "population": "5708", "act_25": "22", "act_mid": "24", "act_75": "26", "cost": "22769" }, "geometry": { "type": "Point", "coordinates": [ -75.06363, 42.46886 ] } },
{ "type": "Feature", "properties": { "latitude": 43.454287, "longitude": -76.540798, "name": "SUNY College at Oswego", "city": "Oswego", "us_state": "NY", "url": "www.oswego.edu\/", "population": "7113", "act_25": "22", "act_mid": "25", "act_75": "27", "cost": "22822" }, "geometry": { "type": "Point", "coordinates": [ -76.5408, 43.45429 ] } },
{ "type": "Feature", "properties": { "latitude": 41.047223, "longitude": -73.701955, "name": "SUNY at Purchase College", "city": "Purchase", "us_state": "NY", "url": "www.purchase.edu", "population": "3901", "act_25": "20", "act_mid": "24", "act_75": "27", "cost": "25310" }, "geometry": { "type": "Point", "coordinates": [ -73.70195, 41.04722 ] } },
{ "type": "Feature", "properties": { "latitude": 40.799021, "longitude": -73.571907, "name": "SUNY College at Old Westbury", "city": "Old Westbury", "us_state": "NY", "url": "www.oldwestbury.edu", "population": "4086", "act_25": "19", "act_mid": "22", "act_75": "24", "cost": "18627" }, "geometry": { "type": "Point", "coordinates": [ -73.57191, 40.79902 ] } },
{ "type": "Feature", "properties": { "latitude": 44.69293, "longitude": -73.466536, "name": "SUNY College at Plattsburgh", "city": "Plattsburgh", "us_state": "NY", "url": "www.plattsburgh.edu", "population": "5146", "act_25": "21", "act_mid": "23", "act_75": "25", "cost": "22718" }, "geometry": { "type": "Point", "coordinates": [ -73.46654, 44.69293 ] } },
{ "type": "Feature", "properties": { "latitude": 40.807217, "longitude": -73.795309, "name": "SUNY Maritime College", "city": "Throggs Neck", "us_state": "NY", "url": "www.sunymaritime.edu", "population": "1626", "act_25": "23", "act_mid": "25", "act_75": "27", "cost": "23909" }, "geometry": { "type": "Point", "coordinates": [ -73.79531, 40.80722 ] } },
{ "type": "Feature", "properties": { "latitude": 40.81357, "longitude": -73.763004, "name": "United States Merchant Marine Academy", "city": "Kings Point", "us_state": "NY", "url": "WWW.USMMA.EDU", "population": "904", "act_25": "26", "act_mid": "28", "act_75": "30", "cost": "8535" }, "geometry": { "type": "Point", "coordinates": [ -73.763, 40.81357 ] } },
{ "type": "Feature", "properties": { "latitude": 36.215536, "longitude": -81.680583, "name": "Appalachian State University", "city": "Boone", "us_state": "NC", "url": "www.appstate.edu\/", "population": "16434", "act_25": "23", "act_mid": "25", "act_75": "27", "cost": "18397" }, "geometry": { "type": "Point", "coordinates": [ -81.68058, 36.21554 ] } },
{ "type": "Feature", "properties": { "latitude": 35.607186, "longitude": -77.368291, "name": "East Carolina University", "city": "Greenville", "us_state": "NC", "url": "www.ecu.edu", "population": "22386", "act_25": "20", "act_mid": "22", "act_75": "24", "cost": "20567" }, "geometry": { "type": "Point", "coordinates": [ -77.36829, 35.60719 ] } },
{ "type": "Feature", "properties": { "latitude": 36.277978, "longitude": -76.214041, "name": "Elizabeth City State University", "city": "Elizabeth City", "us_state": "NC", "url": "www.ecsu.edu", "population": "1272", "act_25": "17", "act_mid": "19", "act_75": "21", "cost": "13169" }, "geometry": { "type": "Point", "coordinates": [ -76.21404, 36.27798 ] } },
{ "type": "Feature", "properties": { "latitude": 35.073641, "longitude": -78.891696, "name": "Fayetteville State University", "city": "Fayetteville", "us_state": "NC", "url": "www.uncfsu.edu", "population": "5105", "act_25": "17", "act_mid": "19", "act_75": "21", "cost": "15066" }, "geometry": { "type": "Point", "coordinates": [ -78.8917, 35.07364 ] } },
{ "type": "Feature", "properties": { "latitude": 36.07282, "longitude": -79.773375, "name": "North Carolina A & T State University", "city": "Greensboro", "us_state": "NC", "url": "www.ncat.edu", "population": "9354", "act_25": "18", "act_mid": "20", "act_75": "22", "cost": "17903" }, "geometry": { "type": "Point", "coordinates": [ -79.77338, 36.07282 ] } },
{ "type": "Feature", "properties": { "latitude": 35.617068, "longitude": -82.565392, "name": "University of North Carolina at Asheville", "city": "Asheville", "us_state": "NC", "url": "https:\/\/www.unca.edu", "population": "3462", "act_25": "23", "act_mid": "26", "act_75": "28", "cost": "18424" }, "geometry": { "type": "Point", "coordinates": [ -82.56539, 35.61707 ] } },
{ "type": "Feature", "properties": { "latitude": 35.911769, "longitude": -79.050969, "name": "University of North Carolina at Chapel Hill", "city": "Chapel Hill", "us_state": "NC", "url": "www.unc.edu", "population": "18169", "act_25": "28", "act_mid": "31", "act_75": "33", "cost": "24327" }, "geometry": { "type": "Point", "coordinates": [ -79.05097, 35.91177 ] } },
{ "type": "Feature", "properties": { "latitude": 35.306022, "longitude": -80.730919, "name": "University of North Carolina at Charlotte", "city": "Charlotte", "us_state": "NC", "url": "www.uncc.edu", "population": "23246", "act_25": "22", "act_mid": "24", "act_75": "26", "cost": "19723" }, "geometry": { "type": "Point", "coordinates": [ -80.73092, 35.30602 ] } },
{ "type": "Feature", "properties": { "latitude": 36.068236, "longitude": -79.809414, "name": "University of North Carolina at Greensboro", "city": "Greensboro", "us_state": "NC", "url": "www.uncg.edu", "population": "15781", "act_25": "21", "act_mid": "23", "act_75": "25", "cost": "18764" }, "geometry": { "type": "Point", "coordinates": [ -79.80941, 36.06824 ] } },
{ "type": "Feature", "properties": { "latitude": 35.974237, "longitude": -78.898602, "name": "North Carolina Central University", "city": "Durham", "us_state": "NC", "url": "www.nccu.edu", "population": "5897", "act_25": "17", "act_mid": "18", "act_75": "19", "cost": "19750" }, "geometry": { "type": "Point", "coordinates": [ -78.8986, 35.97424 ] } },
{ "type": "Feature", "properties": { "latitude": 36.076183, "longitude": -80.235672, "name": "University of North Carolina School of the Arts", "city": "Winston-Salem", "us_state": "NC", "url": "www.uncsa.edu\/", "population": "897", "act_25": "22", "act_mid": "25", "act_75": "28", "cost": "22947" }, "geometry": { "type": "Point", "coordinates": [ -80.23567, 36.07618 ] } },
{ "type": "Feature", "properties": { "latitude": 35.785111, "longitude": -78.674517, "name": "North Carolina State University at Raleigh", "city": "Raleigh", "us_state": "NC", "url": "www.ncsu.edu", "population": "22390", "act_25": "26", "act_mid": "29", "act_75": "31", "cost": "22226" }, "geometry": { "type": "Point", "coordinates": [ -78.67452, 35.78511 ] } },
{ "type": "Feature", "properties": { "latitude": 34.225223, "longitude": -77.875527, "name": "University of North Carolina Wilmington", "city": "Wilmington", "us_state": "NC", "url": "www.uncw.edu", "population": "13608", "act_25": "22", "act_mid": "24", "act_75": "26", "cost": "21642" }, "geometry": { "type": "Point", "coordinates": [ -77.87553, 34.22522 ] } },